id,name,phone,timeOpen,ratingAverage,details,rangePrice,Longitude,Latitude,address
1,030 Cuisine,+(84)0794997030,Đang mở cửa: 11:00 SA - 10:30 CH,4.5,"Phong cách ẩm thực Fusion Nhật Bản, Kiểu Đức, Bữa trưa, Bữa tối, Bữa nửa buổi, Đồ uống",100.000 vnd - 400.000 vnd,106.7062995,10.7744649,"Khách sạn Renaissance Riverside Sài Gòn, 8-15, Đường Tôn Ðức Thắng, Phường Bến Nghé, Quận 1, Thành phố Hồ Chí Minh, 72806, Việt Nam"
2,1102 Crab Pot,+84 8 3820 6453,Đang mở cửa: 10:00 SA - 11:30 CH,4.5,"Kiểu Á, Kiểu Việt, Bữa trưa, Bữa tối",100.000 vnd - 400.000 vnd,106.7042346,10.7757706,"Khách Sạn Caravelle Saigon, 88, Đường Ðồng Khởi, Phường Bến Nghé, Quận 1, Thành phố Hồ Chí Minh, 71006, Việt Nam"
3,123 Vietnamese Cafe & Restaurant,+84 8 3829 1429,Đang mở cửa: 10:00 SA - 10:00 CH,3.5,"Kiểu Việt, Kiểu Á, Phù hợp với người ăn chay, Bữa trưa, Bữa tối",400.000 vnd - 700.000 vnd,106.704649,10.7778222,"Saigon Apartment, 11D, Thi Sách, Phường Bến Nghé, Quận 1, Thành phố Hồ Chí Minh, 77000, Việt Nam"
4,13% Gastro Wine,+84 90 455 18 12,Đang mở cửa: 11:30 SA - 12:00 SA,5.0,"Kiểu Địa Trung Hải, Thịt nướng, Quầy rượu vang, Bữa trưa, Bữa tối, Đêm muộn, Đồ uống",700.000 vnd - 1.000.000 vnd,106.7123207,10.7899721,"The Rabbit Hole Irish Sports Bar, Đường Phạm Viết Chánh, Phường 19, Quận Bình Thạnh, Thành phố Hồ Chí Minh, 77000, Việt Nam"
5,1903 Café,+84 91 421 43 34,Đang mở cửa: 07:00 SA - 10:00 CH,5.0,"Cà phê, Bữa sáng, Bữa trưa, Bữa tối",20.000 vnd - 99.000 vnd,106.7013296,10.7783067,"Chung cư 26 Lý Tự Trọng, Lý Tự Trọng, Phường Bến Nghé, Quận 1, Thành phố Hồ Chí Minh, 71006, Việt Nam"
6,1920 - Prohibition,+84 96 257 27 13,,4.5,"Kiểu Pháp, Hải sản, Quốc tế, Kiểu Việt, Quầy rượu vang",100.000 vnd - 400.000 vnd,106.7040596,10.7740888,"chung cư 42 Nguyễn Huệ, Đường Nguyễn Huệ, Phường Bến Nghé, Quận 1, Thành phố Hồ Chí Minh, 71006, Việt Nam"
7,1976 - Món Ngon Vị Bắc,+84 89 978 19 76,,4.5,"Kiểu Á, Cửa hàng thức ăn ngon, Kiểu Bữa tối",20.000 vnd - 99.000 vnd,106.7124186,10.7899294,"The Rabbit Hole Irish Sports Bar, Đường Phạm Viết Chánh, Phường 19, Quận Bình Thạnh, Thành phố Hồ Chí Minh, 77000, Việt Nam"
8,22z10 Bar Saigon,+84 33 467 8825,Đang mở cửa: 08:00 SA - 01:00 SA,5.0,"Quầy bar, Quán rượu, Pizza, Cà phê, Kiểu Việt, Đêm muộn, Đồ uống",100.000 vnd - 400.000 vnd,106.6906521,10.7648392,"Massage Ngọc Anh, hẻm 102 Cống Quỳnh, Phường Phạm Ngũ Lão, Quận 1, Thành phố Hồ Chí Minh, 70200, Việt Nam"
9,24-Nov,+84 94 108 04 17,Đóng cửa sau 50 phút nữa:  Xem tất cả giờ,4.5,"Kiểu Á, Đương đại, Kiểu Việt, Cà phê, Phù hợp với người ăn chay, Tùy chọn ăn chay, Bữa sáng, Bữa trưa, Bữa tối, Bữa nửa buổi, Đồ uống",400.000 vnd - 700.000 vnd,106.5161961,10.9746451,"Xã Phước Vĩnh An, Huyện Củ Chi, Thành phố Hồ Chí Minh, Việt Nam"
10,2G Hub,+84 8 2220 0666,Đang mở cửa: 06:00 SA - 9:00 CH,5.0,"Cà phê, Đồ ăn nhanh, Kiểu Á, Kiểu Việt, Kiểu Bữa tối, Thức ăn đường phố, Bữa sáng, Bữa trưa, Bữa tối, Bữa nửa buổi, Đêm muộn, Đồ uống",20.000 vnd - 99.000 vnd,106.7038779,10.7754461,"Khách Sạn Caravelle Saigon, 88, Đường Ðồng Khởi, Phường Bến Nghé, Quận 1, Thành phố Hồ Chí Minh, 71006, Việt Nam"
11,2T Quan Nuong,Chưa xác thực,,4.5,"Đồ nướng, Kiểu Á, Kiểu Việt, Bữa trưa, Bữa tối, Chỗ ngồi, Dịch vụ bàn",400.000 vnd - 700.000 vnd,106.733626,10.7411578,"Phường Tân Thuận Đông, Quận 7, Thành phố Hồ Chí Minh, 72800, Việt Nam"
12,2Ti Quan,Chưa xác thực,,4.0,"Kiểu Việt, Hải sản, Bữa trưa, Chỗ ngồi",400.000 vnd - 700.000 vnd,106.6921147,10.7788073,"Nhà Hàng Nam Phạm, Đường Võ Văn Tần, Phường Võ Thị Sáu, Quận 3, Thành phố Hồ Chí Minh, 70001, Việt Nam"
13,3 Con Soc Sushi,+84 93 358 23 88,Đang mở cửa: 10:30 SA - 2:00 CH4:00 CH - 10:00 CH,4.0,"Kiểu Nhật, Hải sản, Bữa trưa, Bữa tối, Đặt chỗ",700.000 vnd - 1.000.000 vnd,106.6944294,10.786008,"ATM Techcombank, Đường Hai Bà Trưng, Phường Đa Kao, Quận 1, Thành phố Hồ Chí Minh, 71006, Việt Nam"
14,365 Degrees Pizzaria and Bar,+84 90 185 42 13,Đang mở cửa: 5:00 CH - 01:00 SA,3.5,"Kiểu Ý, Pizza, Phù hợp với người ăn chay, Bữa tối",400.000 vnd - 700.000 vnd,106.6907673,10.7697034,"Nhà Hàng Đèn Lồng, 130, Đường Nguyễn Trãi, Phường Bến Thành, Quận 1, Thành phố Hồ Chí Minh, 70200, Việt Nam"
15,3T Egg Coffee Sài Gòn,+84 93 743 06 00,,5.0,Kiểu Việt,100.000 vnd - 400.000 vnd,106.7075282,10.7797911,"Khách Sạn Le Méridien Sài Gòn, 3C, Đường Tôn Ðức Thắng, Phường Bến Nghé, Quận 1, Thành phố Hồ Chí Minh, 00084, Việt Nam"
16,4An Authentic Vietnamese Vegetarian,+84 93 579 16 50,Đang mở cửa: 10:30 SA - 10:00 CH,5.0,"Cà phê, Cửa hàng thức ăn ngon, Kiểu Việt, Bữa trưa, Bữa tối",100.000 vnd - 400.000 vnd,106.705065,10.773268,"Kissho, Đường Nguyễn Huệ, Phường Bến Nghé, Quận 1, Thành phố Hồ Chí Minh, 71006, Việt Nam"
17,4An Vegetarian,028 9999 6268,,4.0,"Cà phê, Cửa hàng thức ăn ngon, Đặt chỗ",100.000 vnd - 400.000 vnd,106.6981641,10.7788278,"Italiani's Pizza Han Thuyen, 17, Đường Hàn Thuyên, Phường Bến Nghé, Quận 1, Thành phố Hồ Chí Minh, 71006, Việt Nam"
18,5 Senses,+84 28 6688 7888,Đang mở cửa: 3:00 CH - 12:30 SA,5.0,"Kiểu Nhật, Quầy bar, Kiểu Á, Đương đại, Quán rượu, Phong cách ẩm thực Fusion Nhật Bản, Bữa trưa, Bữa tối, Đặt chỗ, Ăn tối phòng riêng, Chỗ ngồi, Có bãi đỗ xe, Chỉ chấp nhận tiền mặt, Chấp nhận thẻ tín dụng, Có thẻ quà tặng",400.000 vnd - 700.000 vnd,106.7054334,10.7733077,"Ngon Sushi, Đường Ngô Ðức Kế, Phường Bến Nghé, Quận 1, Thành phố Hồ Chí Minh, 00084, Việt Nam"
19,52/3 Kitchen & Bar,+84 90 300 76 60,Đang mở cửa: 5:00 CH - 12:00 SA,5.0,"Quầy bar, Kiểu Bữa tối, Kiểu Á, Kiểu Âu, Đương đại, Món kết hợp, Bữa tối, Bữa trưa, Đêm muộn, Đồ uống",100.000 vnd - 400.000 vnd,106.696552,10.767174,"Phòng khám Đa khoa Quốc tế Sài Gòn, 9-15, Trịnh Văn Cấn, Phường Cầu Ông Lãnh, Quận 1, Thành phố Hồ Chí Minh, 71010, Việt Nam"
20,5G Saigon - Bia & Mồi,+84 8 3411 5779,Đang mở cửa: 4:00 CH - 12:00 SA,4.5,"Kiểu Việt, Bữa tối, Đồ uống",400.000 vnd - 700.000 vnd,106.6939688,10.7682298,"Khách Sạn Yến Trang 2, 40/29, Bùi Viện, Phường Phạm Ngũ Lão, Quận 1, Thành phố Hồ Chí Minh, 71010, Việt Nam"
21,5ku Station,+84 90 777 54 87,Đang mở cửa: 4:00 CH - 04:00 SA,4.0,"Kiểu Á, Kiểu Việt, Đồ nướng, Bữa tối, Đêm muộn, Đặt chỗ, Ngồi ngoài trời, Chỗ ngồi, Phục vụ đồ uống có cồn, Wifi miễn phí, Dịch vụ bàn",400.000 vnd - 700.000 vnd,106.6941184,10.7730476,"Trường THCS Nguyễn Du, Đường Đặng Trần Côn, Phường Bến Thành, Quận 1, Thành phố Hồ Chí Minh, 71009, Việt Nam"
22,5Wine Eatery & Wine Library,+1 289-999-6268,Đang mở cửa: 4:00 CH - 02:00 SA,5.0,"Cửa hàng thức ăn ngon, Quán bar phục vụ đồ ăn, Bữa tối",400.000 vnd - 700.000 vnd,106.6914443,10.7647194,"Massage Ngọc Anh, hẻm 102 Cống Quỳnh, Phường Phạm Ngũ Lão, Quận 1, Thành phố Hồ Chí Minh, 70200, Việt Nam"
23,7 Bridges Brewing Co. Saigon Taproom & Bottle Shop,+84 97 732 64 78,Đang mở cửa: 11:00 SA - 12:00 SA,4.5,"Pizza, Nhà hàng bia, Nhà hàng bán bia, Quốc tế, Quán rượu, Bữa trưa, Bữa tối, Bữa nửa buổi, Đêm muộn, Đồ uống, Giao hàng, Cửa hàng bán thức ăn mang về, Đặt chỗ, Ngồi ngoài trời, Chỗ ngồi, Có bãi đỗ xe, Bãi đỗ xe đường phố, Phục vụ",400.000 vnd - 700.000 vnd,106.69834,10.768814,"Regal Luxury, Calmette, Phường Nguyễn Thái Bình, Quận 1, Thành phố Hồ Chí Minh, 71010, Việt Nam"
24,82 Cafe,+84 97 547 22 92,,4.5,Cà phê,400.000 vnd - 700.000 vnd,106.6913898,10.7677934,"Khách Sạn The Hideout, Phạm Ngũ Lão, Phường Phạm Ngũ Lão, Quận 1, Thành phố Hồ Chí Minh, 70200, Việt Nam"
25,94 Restaurant,+84 90 908 84 99,,4.0,"Kiểu Á, Hải sản, Kiểu Việt, Bữa trưa, Bữa tối, Cửa hàng bán thức ăn mang về, Chỗ ngồi",400.000 vnd - 700.000 vnd,106.7004885,10.772939,"Trung tâm mua sắm Saigon Centre, Nam Kỳ Khởi Nghĩa, Phường Bến Nghé, Quận 1, Thành phố Hồ Chí Minh, 00084, Việt Nam"
26,A Bửu Lounge,+84 8 3824 2479,,4.5,Kiểu Âu,100.000 vnd - 400.000 vnd,106.6975608,10.7741735,"ACB Bank, Lý Tự Trọng, Phường Bến Thành, Quận 1, Thành phố Hồ Chí Minh, 71009, Việt Nam"
27,A Bửu Sài Gòn,+84 8 3925 7899,,4.0,"Kiểu Á, Kiểu Việt, Bữa tối, Đặt chỗ, Chỗ ngồi, Dịch vụ bàn",400.000 vnd - 700.000 vnd,106.6967442,10.7819798,"Bach Suites Saigon, 10A, Phạm Ngọc Thạch, Phường Võ Thị Sáu, Quận 3, Thành phố Hồ Chí Minh, 71006, Việt Nam"
28,Å by TUNG,+84 98 280 85 33,Đang mở cửa: 6:00 CH - 11:30 CH,4.5,"Kiểu Âu, Kiểu Á, Quốc tế, Đương đại, Bản địa, Bữa tối, Đồ uống",1.000.000 vnd - 10.000.000 vnd,106.7287852,10.8166065,"Le Square Epicier Fin, Đường Nguyễn Văn Hưởng, Phường Thảo Điền, Thành phố Thủ Đức, Thành phố Hồ Chí Minh, 71107, Việt Nam"
29,A.dau Kitchen,+84 327 328 258,Đang mở cửa: 6:00 CH - 11:00 CH,5.0,"Quầy bar, Kiểu Á, Cửa hàng thức ăn ngon, Quán rượu, Kiểu Bữa tối, Bản địa, Bữa tối",400.000 vnd - 700.000 vnd,106.7305746,10.8031868,"Cửa Hàng Pizza 4P's, 48/01, Xuân Thuỷ, Phường Thảo Điền, Thành phố Thủ Đức, Thành phố Hồ Chí Minh, 71108, Việt Nam"
30,Above Sky Bar,+84 28 3822 5678,Đang mở cửa: 5:00 CH - 12:00 SA,5.0,"Kiểu Mỹ, Kiểu Á, Kiểu Việt, Bữa tối",400.000 vnd - 700.000 vnd,106.6980572,10.7643997,"Quan Ut Ut American BBQ, Đường Võ Văn Kiệt, Phường Cầu Ông Lãnh, Quận 1, Thành phố Hồ Chí Minh, 71010, Việt Nam"
31,Acoustic Bar,+84 8 3930 7627,,4.5,"Quầy bar, Quán rượu, Đồ uống, Chỗ ngồi, Tivi, Phục vụ đồ uống có cồn, Dịch vụ bàn, Nhạc sống",400.000 vnd - 700.000 vnd,106.6680409,10.7995542,"Khách Sạn SGN Parkroyal, 309B-311, Nguyễn Văn Trỗi, Phường 10, Quận Phú Nhuận, Thành phố Hồ Chí Minh, 70150, Việt Nam"
32,Agavesaigon,+84 70 2389 891,Đang mở cửa: 12:00 CH - 2:00 CH5:00 CH - 10:00 CH,4.5,"Kiểu Mexico, Kiểu La tinh, Quốc tế, Kiểu Tây Ban Nha, Bữa trưa, Bữa tối, Đồ uống",700.000 vnd - 1.000.000 vnd,106.6955926,10.7861247,"Toà Nhà Central Point, Đường Nguyễn Văn Thủ, Phường Đa Kao, Quận 1, Thành phố Hồ Chí Minh, 77000, Việt Nam"
33,Agnes Cafe,+84 93 942 38 38,Đóng cửa sau 56 phút nữa:  Xem tất cả giờ,4.0,"Cà phê, Kiểu Mỹ, Quốc tế, Phù hợp với người ăn chay, Tùy chọn ăn chay",100.000 vnd - 400.000 vnd,106.682799,10.784456,"Hẻm 10 Kỳ Ðồng, Phường 9, Quận 3, Thành phố Hồ Chí Minh, 70150, Việt Nam"
34,Ah!Ngon Quán,+84 91 583 08 90,Đang mở cửa: 10:00 SA - 10:00 CH,5.0,"Kiểu Việt, Kiểu Bữa tối, Bữa trưa, Bữa tối",100.000 vnd - 400.000 vnd,106.6993049,10.7736865,"Nhà Hàng Rơm BBQ, 2-4-6, Lưu Văn Lang, Phường Bến Thành, Quận 1, Thành phố Hồ Chí Minh, 71009, Việt Nam"
35,Aiya,+84 8 3979 7774,,3.5,"Kiểu Á, Cửa hàng thức ăn ngon, Kiểu Việt, Bữa tối, Chỗ ngồi, Dịch vụ bàn",400.000 vnd - 700.000 vnd,106.706305,10.780904,"The Coffee House, Ngô Văn Năm, Phường Bến Nghé, Quận 1, Thành phố Hồ Chí Minh, 77000, Việt Nam"
36,Ajisen Ramen,+84 8 3822 0522,Đang mở cửa: 10:00 SA - 10:00 CH,4.0,"Kiểu Nhật, Bữa trưa, Bữa tối",100.000 vnd - 400.000 vnd,106.6988863,10.7906444,"Đại học Kinh tế TP.HCM UEH - Cơ sở E, 54, Nguyễn Văn Thủ, Phường Đa Kao, Quận 1, Thành phố Hồ Chí Minh, 77000, Việt Nam"
37,Akataiyo,+84 99 711 18 11,,4.0,"Kiểu Nhật, Sushi, Kiểu Á, Phù hợp với người ăn chay, Bữa trưa, Bữa tối",400.000 vnd - 700.000 vnd,106.7333531,10.8042635,"Đường Ngô Quang Huy, Phường Thảo Điền, Thành phố Thủ Đức, Thành phố Hồ Chí Minh, 71108, Việt Nam"
38,Akatonbo,+84 8 3824 4928,Đang mở cửa: 11:00 SA - 2:00 CH5:30 CH - 10:30 CH,4.0,"Kiểu Nhật, Bữa trưa, Bữa tối, Đặt chỗ, Chỗ ngồi, Rượu và bia, Chấp nhận thẻ Mastercard, Chấp nhận thẻ Visa, Wifi miễn phí, Giao hàng, Cửa hàng bán thức ăn mang về, Phục vụ đồ uống có cồn, Chấp nhận thẻ tín dụng, Dịch vụ bàn",700.000 vnd - 1.000.000 vnd,106.6972097,10.7735472,"Reisebüro, Thủ Khoa Huân, Phường Bến Thành, Quận 1, Thành phố Hồ Chí Minh, 71009, Việt Nam"
39,Akoma Cafe & Fusion,+84 90 300 94 41,Đang mở cửa: 07:30 SA - 10:00 CH,5.0,"Cà phê, Kiểu Ý, Món kết hợp, Kiểu Bữa tối, Súp, Bữa sáng, Bữa trưa, Bữa tối, Bữa nửa buổi, Đồ uống",100.000 vnd - 400.000 vnd,106.6931723,10.7710147,"Cửa Hàng Thời Trang An Phước, 3, Nguyễn Trãi, Phường Bến Thành, Quận 1, Thành phố Hồ Chí Minh, 70200, Việt Nam"
40,Al Fresco's,+84 8 3547 4363,,4.0,"Kiểu Ý, Pizza, Kiểu Mỹ, Bữa trưa, Bữa tối, Giao hàng, Cửa hàng bán thức ăn mang về, Chỗ ngồi, Phục vụ đồ uống có cồn, Dịch vụ bàn",400.000 vnd - 700.000 vnd,106.7035365,10.7721183,"Silverland Charner, Hồ Tùng Mậu, Phường Bến Nghé, Quận 1, Thành phố Hồ Chí Minh, 00084, Việt Nam"
41,Al Fresco's Mac Dinh Chi,+84 28 3823 8427,Đang mở cửa: 08:30 SA - 11:00 CH,4.0,"Kiểu Ý, Pizza, Kiểu Âu, Bữa trưa, Bữa tối, Bữa nửa buổi, Đêm muộn, Giao hàng, Cửa hàng bán thức ăn mang về, Chỗ ngồi, Phục vụ đồ uống có cồn, Dịch vụ bàn, Đặt chỗ, Có ghế ăn cho bé",400.000 vnd - 700.000 vnd,106.6885522,10.7715906,"ATM Techcombank, Sương Nguyệt Anh, Phường Bến Thành, Quận 1, Thành phố Hồ Chí Minh, 70200, Việt Nam"
42,Al Sham Restaurant,+84 98 459 71 60,Đang mở cửa: 09:00 SA - 11:00 CH,4.5,"Kiểu Ả Rập, Kiểu Li băng, Kiểu Trung Đông, Kiểu Địa Trung Hải, Phù hợp với người ăn chay, Tùy chọn ăn chay, Thịt kiểu Hồi giáo, Tùy chọn đồ ăn không có gluten, Bữa trưa, Bữa tối, Bữa nửa buổi",400.000 vnd - 700.000 vnd,106.6918959,10.784382,"Nhà Hàng Út Cà Mau, 215, Đường Ðiện Biên Phủ, Phường Võ Thị Sáu, Quận 3, Thành phố Hồ Chí Minh, 70000, Việt Nam"
43,Al Sham Terrace,+84 88 935 84 01,Đang mở cửa: 11:00 SA - 10:00 CH,5.0,"Kiểu Ả Rập, Kiểu Li băng, Kiểu Địa Trung Hải, Bữa trưa, Bữa sáng, Bữa tối",400.000 vnd - 700.000 vnd,106.6877386,10.7647975,"Quán Phở Hùng, 241-243, Đường Nguyễn Trãi, Phường Nguyễn Cư Trinh, Quận 1, Thành phố Hồ Chí Minh, 70200, Việt Nam"
44,Alley 50 Saigon Ultra Lounge,+84 90 231 73 64,Đang mở cửa: 5:00 CH - 01:30 SA,4.5,"Quầy bar, Quán rượu, Kiểu Á, Món kết hợp, Quầy rượu vang, Bữa tối, Đêm muộn, Đồ uống",700.000 vnd - 1.000.000 vnd,106.6971278,10.7910144,"Đường Nguyễn Văn Giai, Phường Đa Kao, Quận 1, Thành phố Hồ Chí Minh, 72210, Việt Nam"
45,Alley Cat Restaurant,+84 70 8980 016,Đang mở cửa: 12:00 SA - 11:59 CH,4.5,"Quốc tế, Kiểu Việt, Kiểu Á, Phù hợp với người ăn chay, Bữa trưa, Bữa sáng, Bữa tối",400.000 vnd - 700.000 vnd,106.704089,10.774112,"chung cư 42 Nguyễn Huệ, Đường Nguyễn Huệ, Phường Bến Nghé, Quận 1, Thành phố Hồ Chí Minh, 71006, Việt Nam"
46,Aloha Poke and Beer,+84 90 972 93 90,Đang đóng cửa:  Xem tất cả giờ,4.5,"Thịt nướng, Quán rượu, Quán rượu đặc sản, Kiểu Hawai, Bữa trưa, Bữa tối",100.000 vnd - 400.000 vnd,106.6885522,10.7715906,"ATM Techcombank, Sương Nguyệt Anh, Phường Bến Thành, Quận 1, Thành phố Hồ Chí Minh, 70200, Việt Nam"
47,Am Dang Typhoon,+84 878 536 688,Đang mở cửa: 11:00 SA - 2:30 CH5:30 CH - 10:00 CH,5.0,"Kiểu Á, Kiểu Thái, Bữa trưa, Bữa tối, Ăn tối phòng riêng, Có bãi đỗ xe, Chấp nhận thẻ tín dụng, Phong cách gia đình",400.000 vnd - 700.000 vnd,106.7047828,10.7766203,"Maritime Bank, Hai Bà Trưng, Phường Bến Nghé, Quận 1, Thành phố Hồ Chí Minh, 71006, Việt Nam"
48,Ẩm Thực Chay & Café K Vegetarian,+84 90 153 90 90,Đang mở cửa: 08:00 SA - 8:00 CH,4.5,"Cà phê, Cửa hàng thức ăn ngon, Kiểu Bữa tối, Tốt cho sức khỏe, Kiểu Trung Á, Bữa sáng, Bữa trưa, Bữa tối, Bữa nửa buổi, Đồ uống, Giao hàng, Đặt chỗ, Bữa ăn tự chọn, Ăn tối phòng riêng, Thanh toán điện tử, Chấp nhận thẻ tín dụng, Phong cách ",400.000 vnd - 700.000 vnd,106.6926099,10.7868103,"Cà Phê - Khách Sạn The Hut Boutique, Đường Trương Quyền, Phường Võ Thị Sáu, Quận 3, Thành phố Hồ Chí Minh, 72210, Việt Nam"
49,Ẩm Thực Chay Thông Viên,+84 93 868 38 75,,4.0,"Tốt cho sức khỏe, Kiểu Việt, Phù hợp với người ăn chay, Tùy chọn ăn chay, Bữa sáng, Bữa trưa, Bữa tối",400.000 vnd - 700.000 vnd,106.702301,10.769751,"Tabak, Hẻm 100 Nguyễn Công Trứ, Phường Nguyễn Thái Bình, Quận 1, Thành phố Hồ Chí Minh, 71010, Việt Nam"
50,Ẩm Thực Hạnh Dung,+84 8 3860 1204,,4.5,Hải sản,400.000 vnd - 700.000 vnd,106.7029286,10.7788602,"FamilyMart, Đường Hai Bà Trưng, Phường Bến Nghé, Quận 1, Thành phố Hồ Chí Minh, 71006, Việt Nam"
51,Ẩm thực Hương Bắc,+84 8 6660 1102,,4.5,Kiểu Việt,100.000 vnd - 400.000 vnd,106.6946829,10.7862382,"Phường Đa Kao, Quận 1, Thành phố Hồ Chí Minh, 72210, Việt Nam"
52,Ẩm Thực Thố,+84 90 955 16 51,,5.0,Kiểu Việt,100.000 vnd - 400.000 vnd,106.703261,10.778382,"Cửa Hàng Bánh Mì Pat A Chou, Đường Hai Bà Trưng, Phường Bến Nghé, Quận 1, Thành phố Hồ Chí Minh, 71006, Việt Nam"
53,Ẩm thực Thượng Hải,+84 90 287 78 11,,4.5,5.000 ₫ - 69.000 ₫,20.000 vnd - 99.000 vnd,106.6936725,10.7722915,"Nhà Hàng Cycloresto, Unit 28, Hẻm 6 Đường Cách Mạng Tháng 8, Phường Bến Thành, Quận 1, Thành phố Hồ Chí Minh, 71009, Việt Nam"
54,Ambrosia Café Bistro,+84 90 366 50 66,Đang mở cửa: 07:00 SA - 10:00 CH,5.0,"Món kết hợp, Kiểu Việt, Kiểu Ý, Cà phê, Kiểu Âu, Bữa sáng, Bữa trưa, Bữa tối, Bữa nửa buổi, Đồ uống",400.000 vnd - 700.000 vnd,106.7834165,10.7955857,"Đường Song Hành Cao Tốc Long Thành Dầu Dây, VENICA KHANG ĐIỀN, Phường Phú Hữu, Thành phố Thủ Đức, Thành phố Hồ Chí Minh, 08408, Việt Nam"
55,Amigo Grill Restaurant,+84 28 3824 1248,Đang mở cửa: 11:00 SA - 10:00 CH,4.0,"Nhà hàng bít tết, Thịt nướng, Bữa trưa, Bữa tối, Đồ uống",700.000 vnd - 1.000.000 vnd,106.7026177,10.7755911,"Nhà Hàng Saigon Garden, 99, Đường Nguyễn Huệ, Phường Bến Nghé, Quận 1, Thành phố Hồ Chí Minh, 71006, Việt Nam"
56,Amore Rooftop Bar,+84 91 768 61 60,Đang mở cửa: 12:00 CH - 04:00 SA,4.5,"Đồ nướng, Quầy bar, Kiểu Việt, Phù hợp với người ăn chay, Bữa tối, Đồ uống",400.000 vnd - 700.000 vnd,106.695132,10.768112,"Phúc Long - Nguyễn Thái Học, Trần Hưng Ðạo, Phường Phạm Ngũ Lão, Quận 1, Thành phố Hồ Chí Minh, 71010, Việt Nam"
57,Ampm Restaurant & Cafe,+84 8 7304 0044,,4.0,"Quốc tế, Kiểu Á, Kiểu Việt, Bữa tối, Bữa trưa, Chỗ ngồi, Đặt chỗ, Lối vào ra cho xe lăn, Dịch vụ bàn",400.000 vnd - 700.000 vnd,106.7237288,10.7302122,"Capri by Fraser, 2, Đường C, Phường Tân Phú, Quận 7, Thành phố Hồ Chí Minh, 72915, Việt Nam"
58,Amun Restaurant & Lounge,+84 28 6276 9179,Đang mở cửa: 10:30 SA - 11:45 CH,4.5,"Kiểu Ma rốc, Kiểu Địa Trung Hải, Món kết hợp, Kiểu Bữa tối, Quán bar phục vụ đồ ăn, Thịt kiểu Hồi giáo",400.000 vnd - 700.000 vnd,106.6931699,10.7671891,"Nhà Hàng Yummy And Cheap!, Hẻm 84 Bùi Viện, Phường Phạm Ngũ Lão, Quận 1, Thành phố Hồ Chí Minh, 70200, Việt Nam"
59,An,+84 28 3825 8275,Đang mở cửa: 09:00 SA - 10:00 CH,4.0,"Kiểu Việt, Phù hợp với người ăn chay, Bữa trưa, Bữa tối, Bữa sáng, Đêm muộn",400.000 vnd - 700.000 vnd,106.6898308,10.7695386,"Nhà Hàng Hương Việt, Hẻm Tôn Thất Tùng, Phường Bến Thành, Quận 1, Thành phố Hồ Chí Minh, 70200, Việt Nam"
60,An Cafe Restaurant,+84 90 305 07 10,Đang đóng cửa:  Xem tất cả giờ,4.5,"Kiểu Việt, Cà phê, Kiểu Á, Phù hợp với người ăn chay, Tùy chọn ăn chay, Tùy chọn đồ ăn không có gluten",100.000 vnd - 400.000 vnd,106.6958799,10.7732701,"Quán Bar LAC Brewery, Đường Lý Tự Trọng, Phường Bến Thành, Quận 1, Thành phố Hồ Chí Minh, 71009, Việt Nam"
61,Ăn Cơm Uống Nước - Kin Khao Kin Nam,+84 93 209 90 28,Đang mở cửa: 09:00 SA - 10:30 CH,3.5,"Hải sản, Kiểu Á, Kiểu Thái, Tốt cho sức khỏe, Bữa trưa, Bữa tối, Bữa nửa buổi",100.000 vnd - 400.000 vnd,106.7099022,10.729413,"Chung Cư Hưng Vượng 1, Đường Nguyễn Văn Linh, Phường Tân Phong, Quận 7, Thành phố Hồ Chí Minh, 72915, Việt Nam"
62,An Nam Quan,+84 28 3910 0988,Đang mở cửa: 10:00 SA - 11:45 CH,4.5,"Kiểu Á, Kiểu Việt, Phù hợp với người ăn chay, Tùy chọn ăn chay",100.000 vnd - 400.000 vnd,106.7040699,10.7695874,"Chung Cư 14 Tôn Thất Đạm, 14, Tôn Thất Ðạm, Phường Nguyễn Thái Bình, Quận 1, Thành phố Hồ Chí Minh, 72806, Việt Nam"
63,An Vietnamese BBQ & Hotpot,+84 28 6276 8234,Đang mở cửa: 10:00 SA - 2:00 CH5:00 CH - 10:00 CH,5.0,"Đồ nướng, Bữa tối, Bữa trưa, Đặt chỗ",400.000 vnd - 700.000 vnd,106.6992799,10.7847179,"Toà Nhà Star, Mạc Đĩnh Chi, Phường Đa Kao, Quận 1, Thành phố Hồ Chí Minh, 77000, Việt Nam"
64,An Xanh 1958 - LearningHub Cafe,+84 94 344 20 21,Đang mở cửa: 09:30 SA - 9:30 CH,4.5,"Cà phê, Bữa trưa, Chỗ ngồi, Bãi đỗ xe có vé, Đỗ xe có người coi, Thanh toán điện tử, Wifi miễn phí, Nhà hàng không hút thuốc",400.000 vnd - 700.000 vnd,106.6877962,10.7748442,"66, Đường Nguyễn Thị Diệu, Phường Võ Thị Sáu, Quận 3, Thành phố Hồ Chí Minh, 70001, Việt Nam"
65,Anan Saigon,+84 90 479 29 20,Đang mở cửa: 5:00 CH - 12:00 SA,4.5,"Kiểu Việt, Quốc tế, Kiểu Á, Phù hợp với người ăn chay, Tùy chọn ăn chay, Tùy chọn đồ ăn không có gluten",100.000 vnd - 400.000 vnd,106.7003382,10.7857793,"Hẻm 18B Nguyễn Thị Minh Khai, Phường Đa Kao, Quận 1, Thành phố Hồ Chí Minh, 77000, Việt Nam"
66,Anh Ngoai Quan,+84 776 112 112,Đang mở cửa: 06:00 SA - 12:00 SA,5.0,"Nhà hàng bia, Bữa sáng, Bữa trưa, Bữa tối, Đêm muộn, Đồ uống",100.000 vnd - 400.000 vnd,106.693082,10.760888,"Phường Cô Giang, Quận 1, Thành phố Hồ Chí Minh, 71010, Việt Nam"
67,ANH TUKK,+84 28 3825 1676,Đang mở cửa: 11:00 SA - 10:00 CH,4.5,"Kiểu Á, Kiểu Thái, Phù hợp với người ăn chay, Tùy chọn ăn chay, Tùy chọn đồ ăn không có gluten",700.000 vnd - 1.000.000 vnd,106.704643,10.6951517,"Hẻm 1368 Lê Văn Lương, Xã Phước Kiển, Huyện Nhà Bè, Thành phố Hồ Chí Minh, 72915, Việt Nam"
68,Ann Quán,+84 28 3622 6666,Đang mở cửa: 12:00 SA - 11:59 CH,4.0,"Cửa hàng thức ăn ngon, Kiểu Việt, Nhà hàng bán bia, Kiểu Á, Quán rượu, Bữa sáng, Bữa trưa, Bữa tối, Bữa nửa buổi, Đêm muộn, Đồ uống",100.000 vnd - 400.000 vnd,106.6882934,10.7633665,"Trạm Xe Bus Số 45, Nguyễn Cư Trinh, Phường Nguyễn Cư Trinh, Quận 1, Thành phố Hồ Chí Minh, 70200, Việt Nam"
69,Annam Cafe Gourmet,+84 8 3822 9332,,4.0,"Cà phê, Bữa trưa, Chỗ ngồi, Dịch vụ bàn",400.000 vnd - 700.000 vnd,106.6962715,10.7718378,"Nhà Hàng Truly Việt, Hẻm 26 Trương Ðịnh, Phường Bến Thành, Quận 1, Thành phố Hồ Chí Minh, 71009, Việt Nam"
70,Annamite Restaurant,+84 8 6686 5143,,4.5,"Kiểu Pháp, Giao hàng, Cửa hàng bán thức ăn mang về, Đặt chỗ, Ngồi ngoài trời, Chỗ ngồi, Có ghế ăn cho bé, Phục vụ đồ uống có cồn, Quầy bar đầy đủ, Rượu và bia, Chấp nhận thẻ Visa, Wifi miễn phí, Chấp nhận thẻ tín dụn",400.000 vnd - 700.000 vnd,106.736306,10.804251,"Micro Boulangerie, Xuân Thuỷ, Phường Thảo Điền, Thành phố Thủ Đức, Thành phố Hồ Chí Minh, 71108, Việt Nam"
71,Annz,+84 8 3822 2757,,4.0,"Kiểu Nhật, Sushi, Kiểu Á, Phù hợp với người ăn chay, Bữa trưa, Bữa tối",400.000 vnd - 700.000 vnd,106.700798,10.7732879,"Trung tâm mua sắm Saigon Centre, Nam Kỳ Khởi Nghĩa, Phường Bến Nghé, Quận 1, Thành phố Hồ Chí Minh, 00084, Việt Nam"
72,Anrakutei,+84 28 3823 6378,Đang mở cửa: 11:00 SA - 11:00 CH,4.5,"Kiểu Nhật, Đồ nướng, Thịt nướng, Bữa trưa, Bữa tối, Đồ uống",100.000 vnd - 400.000 vnd,106.700576,10.767777,"Sup Cua Hanh, Nguyễn Công Trứ, Phường Nguyễn Thái Bình, Quận 1, Thành phố Hồ Chí Minh, 71010, Việt Nam"
73,An's Saigon,+84 90 135 13 31,Đang mở cửa: 07:30 SA - 11:00 CH,5.0,"Món kết hợp, Kiểu Việt, Bữa sáng, Bữa trưa, Bữa tối",400.000 vnd - 700.000 vnd,106.6339658,10.8471586,"Galaxy Cinema - Nguyễn Văn Quá, Đường Nguyễn Văn Quá, Phường Đông Hưng Thuận, Quận 12, Thành phố Hồ Chí Minh, 71509, Việt Nam"
74,Ararat Restaurant & Messo Lounge,+84 773 740 160,Đang mở cửa: 08:00 SA - 10:00 CH,5.0,"Kiểu Nga, Kiểu Đông Âu, Kiểu Armenia, Kiểu Georgia, Bữa sáng, Bữa trưa, Bữa tối",400.000 vnd - 700.000 vnd,106.6953455,10.7652004,"Khách Sạn Rou, 37B, Đường Cô Bắc, Phường Cầu Ông Lãnh, Quận 1, Thành phố Hồ Chí Minh, 71010, Việt Nam"
75,Arigato Sushi,+84 93 875 42 51,Đang mở cửa: 11:00 SA - 10:00 CH,4.0,"Kiểu Nhật, Sushi, Bữa trưa, Bữa tối, Đặt chỗ",700.000 vnd - 1.000.000 vnd,106.7005216,10.7791736,"Papermoney, Đường Nguyễn Du, Phường Bến Nghé, Quận 1, Thành phố Hồ Chí Minh, 71006, Việt Nam"
76,Arirang BBQ,+84 28 3823 1983,Đang mở cửa: 11:00 SA - 10:00 CH,4.0,"Đồ nướng, Kiểu Á, Kiểu Hàn Quốc, Bữa trưa, Bữa tối",100.000 vnd - 400.000 vnd,106.692791,10.7702249,"Fresh good quality juice place, Hẻm 39 Nguyễn Trãi, Phường Bến Thành, Quận 1, Thành phố Hồ Chí Minh, 70200, Việt Nam"
77,ARTO House,+84 8 6618 8801,Đang mở cửa: 09:00 SA - 12:00 SA,5.0,"Đương đại, Món kết hợp, Kiểu Pháp, Kiểu Đức, Kiểu Âu, Bữa sáng, Bữa trưa, Bữa tối, Bữa nửa buổi, Đêm muộn, Đồ uống",100.000 vnd - 400.000 vnd,106.6815899,10.7839738,"Chùa Minh Đạo, Hẻm 14 Kỳ Ðồng, Phường 9, Quận 3, Thành phố Hồ Chí Minh, 70150, Việt Nam"
78,Artually Café,+84 70 8869 806,Đang mở cửa: 07:00 SA - 9:00 CH,4.5,"Bữa sáng, Bữa trưa, Bữa tối, Bữa nửa buổi, Đồ uống",400.000 vnd - 700.000 vnd,106.6800888,10.7596331,"VietinBank, Đường Trần Bình Trọng, Phường 3, Quận 5, Thành phố Hồ Chí Minh, 72406, Việt Nam"
79,ASA Bistro - Cafe & Restaurant,+84 90 909 81 46,Đang mở cửa: 07:00 SA - 2:00 CH5:00 CH - 10:00 CH,4.5,"Kiểu Mỹ, Cà phê, Quầy rượu vang, Tốt cho sức khỏe, Bữa trưa, Bữa tối, Bữa sáng, Đồ uống",100.000 vnd - 400.000 vnd,106.7004525,10.7718819,"Club 61, 61, Nam Kỳ Khởi Nghĩa, Phường Bến Thành, Quận 1, Thành phố Hồ Chí Minh, 00084, Việt Nam"
80,Ashima Mushroom Hotpot - Thảo Điền,+84 28 3620 4723,,4.5,"Kiểu Nhật, Kiểu Á, Bữa trưa, Bữa tối, Đồ uống",400.000 vnd - 700.000 vnd,106.704285,10.772439,"Drago Specialty Coffee, Đường Ngô Ðức Kế, Phường Bến Nghé, Quận 1, Thành phố Hồ Chí Minh, 00084, Việt Nam"
81,Ashoka,+84 28 3823 1372,Đang mở cửa: 11:00 SA - 2:00 CH5:00 CH - 10:00 CH,3.5,"Kiểu Ấn Độ, Phù hợp với người ăn chay, Tùy chọn ăn chay, Thịt kiểu Hồi giáo",100.000 vnd - 400.000 vnd,106.7090483,10.7235617,"Đường Lý Long Tường, Phường Tân Phong, Quận 7, Thành phố Hồ Chí Minh, 72915, Việt Nam"
82,Atrium Cafe,+84 8 3823 3333,,4.5,"Bữa sáng, Bữa trưa, Bữa tối, Bữa nửa buổi, Chỗ ngồi, Đặt chỗ, Phục vụ đồ uống có cồn",400.000 vnd - 700.000 vnd,106.6984623,10.7743336,"Tổng Công ty Bến Thành, 27, Nguyễn Trung Trực, Phường Bến Thành, Quận 1, Thành phố Hồ Chí Minh, 71009, Việt Nam"
83,Atrium Lounge,+84 28 3822 0033,Đang mở cửa: 11:00 SA - 10:00 CH,4.5,"Bữa trưa, Bữa nửa buổi, Đồ uống, Đặt chỗ, Chỗ ngồi, Lối vào ra cho xe lăn, Phục vụ đồ uống có cồn, Rượu và bia, Chấp nhận thẻ American Express, Chấp nhận thẻ Mastercard, Thanh toán điện tử, Wifi miễn phí, Chấp nhận thẻ Disco",700.000 vnd - 1.000.000 vnd,106.6548976,10.80175,"Republic Plaza, Cộng Hòa, Phường 4, Quận Tân Bình, Thành phố Hồ Chí Minh, 72106, Việt Nam"
84,Au Lac do Brazil,+84 28 3820 7157,Đang mở cửa: 11:00 SA - 2:00 CH5:00 CH - 10:00 CH,4.0,"Nhà hàng bít tết, Kiểu Brazil, Kiểu La tinh, Đồ nướng, Bữa tối, Bữa trưa, Chỗ ngồi, Có bãi đỗ xe, Phục vụ đồ uống có cồn, Chấp nhận thẻ American Express, Chấp nhận thẻ Mastercard, Chấp nhận thẻ Visa, Wifi miễn phí, Đặt chỗ, Quầy bar đầy đủ",400.000 vnd - 700.000 vnd,106.703465,10.7760445,"Khách sạn Caravelle Saigon, Công Trường Lam Sơn, Phường Bến Nghé, Quận 1, Thành phố Hồ Chí Minh, 71006, Việt Nam"
85,Au Pagolac,+84 28 3836 6543,Đang mở cửa: 10:00 SA - 10:00 CH,4.5,"Món kết hợp, Kiểu Việt, Đồ nướng, Kiểu Á, Bữa tối, Đồ uống, Bữa trưa",100.000 vnd - 400.000 vnd,106.7046829,10.7799359,"Little Japan district, Hẻm 8A Đường Thái Văn Lung, Phường Bến Nghé, Quận 1, Thành phố Hồ Chí Minh, 77000, Việt Nam"
86,Aviation - Cocktail Chamber,+(84)377004054,Đang mở cửa: 6:00 CH - 02:00 SA,5.0,"Quầy bar, Đồ ăn nhanh, Quán rượu, Đêm muộn, Đồ uống, Ngồi ngoài trời, Chỗ ngồi, Có bãi đỗ xe, Bãi đỗ xe đường phố, Có ghế ăn cho bé, Phục vụ đồ uống có cồn, Quầy bar đầy đủ, Rượu và bia, Thanh toán điện tử, Wifi miễn phí, Chấp nhận thẻ tín dụng",400.000 vnd - 700.000 vnd,106.6960144,10.7494288,"Hẻm 861/52 Đường Trần Xuân Soạn, Phường Tân Hưng, Quận 7, Thành phố Hồ Chí Minh, 72800, Việt Nam"
87,B&B Boss Coffee & Food,+84 96 807 59 43,Đang mở cửa: 08:00 SA - 10:00 CH,5.0,"Cà phê, Bữa sáng, Bữa trưa, Bữa tối",400.000 vnd - 700.000 vnd,106.7012932,10.7813326,"Khách Sạn InterContinental, 39, Đường Nguyễn Du, Phường Bến Nghé, Quận 1, Thành phố Hồ Chí Minh, 77000, Việt Nam"
88,B.O.C Homemade BBQ,+84 90 984 78 45,Đang mở cửa: 5:30 CH - 11:00 CH,4.5,"Đồ nướng, Thịt nướng, Quầy bar, Kiểu Âu, Bữa tối, Đặt chỗ, Chỗ ngồi, Lối vào ra cho xe lăn, Phục vụ đồ uống có cồn, Cửa hàng bán thức ăn mang về, Ngồi ngoài trời, Dịch vụ bàn, Nhạc sống",400.000 vnd - 700.000 vnd,106.6960532,10.7691678,"Ford, Đường Trần Hưng Ðạo, Phường Phạm Ngũ Lão, Quận 1, Thành phố Hồ Chí Minh, 71010, Việt Nam"
89,B3 Beer,+84 96 984 49 79,,5.0,Kiểu Việt,100.000 vnd - 400.000 vnd,106.7062995,10.7744649,"Khách sạn Renaissance Riverside Sài Gòn, 8-15, Đường Tôn Ðức Thắng, Phường Bến Nghé, Quận 1, Thành phố Hồ Chí Minh, 72806, Việt Nam"
90,B3 Steakhouse & Craft Beer,+84 166 519 9846,Đang mở cửa: 3:00 CH - 11:00 CH,4.5,"Nhà hàng bít tết, Kiểu Âu, Tùy chọn đồ ăn không có gluten",400.000 vnd - 700.000 vnd,106.6914673,10.7714636,"Nhà Hàng 48 Bistro, 52, Đường Lê Thị Riêng, Phường Bến Thành, Quận 1, Thành phố Hồ Chí Minh, 70200, Việt Nam"
91,B3 Wine Bar & Grill,+84 98 946 86 43,Đang mở cửa: 4:00 CH - 11:00 CH,5.0,"Kiểu Pháp, Nhà hàng bít tết, Kiểu Âu, Quầy rượu vang, Bữa tối",400.000 vnd - 700.000 vnd,106.7201517,10.7291888,"Shang Garden, Đường Hoàng Văn Thái, Phường Tân Phú, Quận 7, Thành phố Hồ Chí Minh, 72915, Việt Nam"
92,Ba Con Cuu Cao Thang,+(84)38341119,,4.0,"Kiểu Trung Quốc, Kiểu Á",400.000 vnd - 700.000 vnd,106.6905773,10.7720269,"Doi Coffee & Tea, 32, Bùi Thị Xuân, Phường Bến Thành, Quận 1, Thành phố Hồ Chí Minh, 70200, Việt Nam"
93,BA GÁC nướng & bia,+84 1900 6268,Đang mở cửa: 4:00 CH - 12:00 SA,4.5,"Nhà hàng bán bia, Cửa hàng thức ăn ngon, Kiểu Bữa tối, Bữa tối",100.000 vnd - 400.000 vnd,106.7053451,10.7742233,"Khách sạn Grand Sài Gòn, Đường Ðồng Khởi, Phường Bến Nghé, Quận 1, Thành phố Hồ Chí Minh, 71006, Việt Nam"
94,Bà Nem -N.E.Food,+84 28 2251 4888,Đang mở cửa: 11:00 SA - 11:00 CH,5.0,"Cà phê, Hải sản, Kiểu Việt, Bữa trưa, Bữa tối",100.000 vnd - 400.000 vnd,106.6936003,10.7706322,"Phường Bến Thành, Quận 1, Thành phố Hồ Chí Minh, 71009, Việt Nam"
95,Baba's Kitchen,+84 28 3744 6897,,4.5,"Kiểu Ấn Độ, Kiểu Á, Tùy chọn ăn chay",100.000 vnd - 400.000 vnd,106.6910897,10.7699834,"Phường Bến Thành, Quận 1, Thành phố Hồ Chí Minh, 70200, Việt Nam"
96,Baby Spoon,+84 93 881 24 86,Đang mở cửa: 11:00 SA - 10:00 CH,4.0,"Kiểu Á, Kiểu Nhật, Bữa trưa, Bữa tối, Chỗ ngồi, Phục vụ đồ uống có cồn, Cửa hàng bán thức ăn mang về, Đặt chỗ, Dịch vụ bàn",400.000 vnd - 700.000 vnd,106.699251,10.7784346,"Văn phòng Linh mục, 1, Đường Nguyễn Du, Phường Bến Nghé, Quận 1, Thành phố Hồ Chí Minh, 71006, Việt Nam"
97,Babylon Bar,+84 122 954 3131,Đang mở cửa: 3:30 CH - 02:00 SA,5.0,"Bữa tối, Đặt chỗ",400.000 vnd - 700.000 vnd,106.707818,10.7619779,"Copac Square, 12, Tôn Đản, Phường 8, Quận 4, Thành phố Hồ Chí Minh, 72800, Việt Nam"
98,Back In Time Cafe,+84 8 3855 4697,,4.5,Kiểu Việt,100.000 vnd - 400.000 vnd,106.6896617,10.7668504,"Khách Sạn Khói, 373/11, Phạm Ngũ Lão, Phường Phạm Ngũ Lão, Quận 1, Thành phố Hồ Chí Minh, 70200, Việt Nam"
99,Bagel Brothers,+(84)07 6361 0211,,5.0,"Kiểu Mỹ, Cà phê, Kiểu Úc",100.000 vnd - 400.000 vnd,106.7294694,10.7316043,"Hẻm 710 Đường Huỳnh Tấn Phát, Phường Tân Phú, Quận 7, Thành phố Hồ Chí Minh, 72915, Việt Nam"
100,Baikohken Ramen,+84 8 3821 1565,,4.0,Kiểu Nhật,700.000 vnd - 1.000.000 vnd,106.6892593,10.7867054,"Phở Hòa Pasteur, 260C, Pasteur, Phường Võ Thị Sáu, Quận 3, Thành phố Hồ Chí Minh, 72210, Việt Nam"
101,Baltic Cafe & Restaurant,+84 28 3930 3535,,5.0,"Kiểu Việt, Kiểu Nga",400.000 vnd - 700.000 vnd,106.6900779,10.7924641,"Viện Thẩm Mỹ Belas, Đường Đặng Dung, Phường Tân Định, Quận 1, Thành phố Hồ Chí Minh, 72210, Việt Nam"
102,Baly Beer House,+84 96 216 28 11,Đang mở cửa: 10:00 SA - 11:45 CH,5.0,"Kiểu Pháp, Nhà hàng bán bia, Hải sản, Quán rượu, Kiểu Việt, Miền Bắc nước Ý, Bữa trưa, Bữa tối, Đêm muộn, Đồ uống",100.000 vnd - 400.000 vnd,106.6911588,10.7648751,"Massage Ngọc Anh, hẻm 102 Cống Quỳnh, Phường Phạm Ngũ Lão, Quận 1, Thành phố Hồ Chí Minh, 70200, Việt Nam"
103,Bamboo Chic,+84 28 6263 6688,Đang mở cửa: 11:30 SA - 2:00 CH6:00 CH - 12:00 SA,4.5,"Kiểu Việt, Phù hợp với người ăn chay, Tùy chọn ăn chay, Tùy chọn đồ ăn không có gluten",100.000 vnd - 400.000 vnd,106.6911428,10.780981,"Nhà Hàng Belgo Belgian Craft Beer Brewery, Đường Lê Quý Đôn, Phường Võ Thị Sáu, Quận 3, Thành phố Hồ Chí Minh, 70001, Việt Nam"
104,Banana Leaf Saigon,+84 90 865 54 26,Đang mở cửa: 07:00 SA - 11:00 CH,4.0,"Kiểu Ấn Độ, Kiểu Việt, Kiểu Malaysia, Phù hợp với người ăn chay, Tùy chọn ăn chay, Thịt kiểu Hồi giáo",400.000 vnd - 700.000 vnd,106.698809,10.778522,"Văn phòng Linh mục, 1, Đường Nguyễn Du, Phường Bến Nghé, Quận 1, Thành phố Hồ Chí Minh, 71006, Việt Nam"
105,Banana Mama Rooftop & Kitchen,+84 93 408 47 54,Đang mở cửa: 12:00 SA - 02:00 SA4:00 CH - 02:00 SA,5.0,"Quán bar phục vụ đồ ăn, Bữa tối, Đêm muộn, Đồ uống, Đặt chỗ, Ngồi ngoài trời, Chỗ ngồi, Phục vụ đồ uống có cồn, Quầy bar đầy đủ, Wifi miễn phí, Dịch vụ bàn, Rượu và bia",400.000 vnd - 700.000 vnd,106.7045755,10.7718037,"Bitexco Financial Tower, 02, Hải Triều, Phường Bến Nghé, Quận 1, Thành phố Hồ Chí Minh, 00084, Việt Nam"
106,Bandido Saigon - Tacos & Tequila,+84 868 885 600,Đang mở cửa: 11:30 SA - 3:00 CH5:30 CH - 11:00 CH,4.5,"Kiểu Mexico, Kiểu Tây Ban Nha, Bữa trưa, Bữa tối",100.000 vnd - 400.000 vnd,106.713951,10.7487329,"13, Hẻm 60 Đường Lâm Văn Bền, Phường Tân Kiểng, Quận 7, Thành phố Hồ Chí Minh, 72800, Việt Nam"
107,Bangkok Kitchen,+84 94 145 55 65,Đang mở cửa: 12:00 SA - 11:59 CH,4.5,"Kiểu Thái, Kiểu Á, Phù hợp với người ăn chay",700.000 vnd - 1.000.000 vnd,106.70329,10.7752041,"Nhà Hàng Secret Cottage Café Dining, 12-14, Nguyễn Thiệp, Phường Bến Nghé, Quận 1, Thành phố Hồ Chí Minh, 00084, Việt Nam"
108,Bánh Canh Cua,Chưa xác thực,,4.5,"Kiểu Việt, Kiểu Á, Súp, Bữa trưa, Bữa tối, Cửa hàng bán thức ăn mang về, Chỗ ngồi, Dịch vụ bàn",400.000 vnd - 700.000 vnd,106.731482,10.8043523,"Trường Đại học Văn hóa TP.HCM, 51, Đường Quốc Hương, Phường Thảo Điền, Thành phố Thủ Đức, Thành phố Hồ Chí Minh, 71107, Việt Nam"
109,Bánh Canh Cua 14,+84 90 278 12 68,,4.5,Kiểu Việt,100.000 vnd - 400.000 vnd,106.66632,10.754447,"Toà án nhân dân Quận 5, Đường Nguyễn Trãi, Phường 11, Quận 5, Thành phố Hồ Chí Minh, 73009, Việt Nam"
110,Bánh Canh Cua 68,+84 96 603 60 66,Đang mở cửa: 06:30 SA - 9:30 CH,5.0,"Bữa sáng, Bữa trưa, Bữa tối",400.000 vnd - 700.000 vnd,106.696974,10.7736514,"Khách Sạn Grand Silverland, Đường Lý Tự Trọng, Phường Bến Thành, Quận 1, Thành phố Hồ Chí Minh, 71009, Việt Nam"
111,"Banh Canh Cua, Goi Cuon Cha Gio",Chưa xác thực,,4.5,Món kết hợp,400.000 vnd - 700.000 vnd,106.7117428,10.7902365,"Hẻm 85 Đường  Phạm Viết Chánh, Phường 19, Quận Bình Thạnh, Thành phố Hồ Chí Minh, 77000, Việt Nam"
112,Bánh canh Ghẹ Ba Sạch,+84 90 743 35 55,,4.5,"Hải sản, Kiểu Việt",400.000 vnd - 700.000 vnd,106.6760733,10.7904661,"Hẻm 104 Hồ Biểu Chánh, Phường 11, Quận Phú Nhuận, Thành phố Hồ Chí Minh, 70150, Việt Nam"
113,Bánh Canh Ghẹ Muối Ớt Xanh,+84 91 650 19 10,,4.5,Kiểu Bữa tối,400.000 vnd - 700.000 vnd,106.6828957,10.7662557,"BIDV, Phạm Viết Chánh, Phường Nguyễn Cư Trinh, Quận 1, Thành phố Hồ Chí Minh, 70200, Việt Nam"
114,Bánh Cuốn Bà Hanh,+84 96 368 87 46,Đang mở cửa: 10:30 SA - 9:30 CH,4.5,"Kiểu Việt, Bữa sáng, Bữa trưa, Bữa tối, Bữa nửa buổi, Đồ uống",100.000 vnd - 400.000 vnd,106.7038615,10.7733531,"Trung tâm mua sắm Sài Gòn Garden, Đường Nguyễn Huệ, Phường Bến Nghé, Quận 1, Thành phố Hồ Chí Minh, 71006, Việt Nam"
115,Bánh Cuốn Hải Nam,+84 28 3839 3394,,4.0,"Kiểu Á, Kiểu Việt, Bữa sáng, Bữa trưa, Bữa tối, Bữa nửa buổi, Cửa hàng bán thức ăn mang về, Chỗ ngồi",400.000 vnd - 700.000 vnd,106.7306166,10.8033676,"Mecozy Apartel, Hẻm 25 Đường Xuân Thủy, Phường Thảo Điền, Thành phố Thủ Đức, Thành phố Hồ Chí Minh, 71108, Việt Nam"
116,Banh Cuon Tay Ho,+84 8 3820 0584,,4.0,"Kiểu Á, Kiểu Việt, Bữa sáng, Bữa trưa, Bữa tối, Cửa hàng bán thức ăn mang về, Chỗ ngồi, Dịch vụ bàn",400.000 vnd - 700.000 vnd,106.700107,10.7771971,"Nhà Hàng Hương Lài, 38, Lý Tự Trọng, Phường Bến Nghé, Quận 1, Thành phố Hồ Chí Minh, 71006, Việt Nam"
117,Bánh Cuốn Thiên Hương,+84 28 3832 3396,,4.0,Kiểu Việt,100.000 vnd - 400.000 vnd,106.7061879,10.7727782,"Majestic Hotel, Đường Ðồng Khởi, Phường Bến Nghé, Quận 1, Thành phố Hồ Chí Minh, 71006, Việt Nam"
118,Banh da cua Di Ly,+84 8 3829 8249,Đang mở cửa: 08:00 SA - 10:00 CH,4.5,"Kiểu Á, Kiểu Việt, Phù hợp với người ăn chay, Tùy chọn ăn chay",100.000 vnd - 400.000 vnd,106.6951874,10.7997854,"Hẻm 125 Đường Lê Văn Duyệt, Phường 3, Quận Bình Thạnh, Thành phố Hồ Chí Minh, 72317, Việt Nam"
119,Bánh Hỏi Ram Tôm,+84 89 889 81 10,,5.0,Kiểu Việt,20.000 vnd - 99.000 vnd,106.700107,10.7771971,"Nhà Hàng Hương Lài, 38, Lý Tự Trọng, Phường Bến Nghé, Quận 1, Thành phố Hồ Chí Minh, 71006, Việt Nam"
120,Bánh Khọt Cô Ba Vũng Tàu,38323312,,4.5,"Kiểu Việt, Kiểu Á, Tùy chọn ăn chay, Phù hợp với người ăn chay, Bữa trưa, Bữa tối, Bữa nửa buổi, Bữa sáng",400.000 vnd - 700.000 vnd,106.7034992,10.7759383,"Khách sạn Caravelle Saigon, Công Trường Lam Sơn, Phường Bến Nghé, Quận 1, Thành phố Hồ Chí Minh, 71006, Việt Nam"
121,Bánh Mì 24,+84 93 332 61 09,,5.0,"Kiểu Pháp, Kiểu Việt, Cửa hàng bán thức ăn mang về",400.000 vnd - 700.000 vnd,106.6862077,10.7939065,"Nhà Hàng Lẩu và Nướng Grill Riverside, 357 - 359, Hoàng Sa, Phường Tân Định, Quận 1, Thành phố Hồ Chí Minh, 79000, Việt Nam"
122,Banh Mi 362,+84 28 7300 0362,Đang mở cửa: 06:00 SA - 9:00 CH,4.5,"Đồ ăn nhanh, Kiểu Á, Kiểu Việt, Bữa sáng, Bữa trưa, Bữa tối, Bữa nửa buổi",400.000 vnd - 700.000 vnd,106.6860122,10.7612944,"cafe 343, Đường Nguyễn Trãi, Phường Nguyễn Cư Trinh, Quận 1, Thành phố Hồ Chí Minh, 70200, Việt Nam"
123,Bánh Mì 362,+84 28 7300 0362,Đang mở cửa: 07:00 SA - 9:00 CH,4.0,"Kiểu Việt, Kiểu Á, Phù hợp với người ăn chay, Bữa sáng, Bữa trưa, Bữa tối, Bữa nửa buổi, Đồ uống",400.000 vnd - 700.000 vnd,106.7031589,10.7887812,"Văn Phòng B - Bộ Thông Tin Truyền Thông, Nguyễn Bỉnh Khiêm, Phường Bến Nghé, Quận 1, Thành phố Hồ Chí Minh, 77000, Việt Nam"
124,Banh Mi 37 Nguyen Trai,Chưa xác thực,Đang mở cửa: 4:00 CH - 8:00 CH,4.5,"Đồ ăn nhanh, Kiểu Việt, Kiểu Á, Bữa tối, Cửa hàng bán thức ăn mang về",400.000 vnd - 700.000 vnd,106.6906704,10.7919488,"Trạm Xe Bus Giao Lộ Trần Khắc Chân, Đường Trần Quang Khải, Phường Tân Định, Quận 1, Thành phố Hồ Chí Minh, 72210, Việt Nam"
125,Bánh Mì Ba Lắc,Chưa xác thực,,4.0,Món kết hợp,400.000 vnd - 700.000 vnd,106.6926325,10.7820915,"Tòa nhà Nam Sơn, 188, Nam Kỳ Khởi Nghĩa, Phường Võ Thị Sáu, Quận 3, Thành phố Hồ Chí Minh, 70001, Việt Nam"
126,Bánh Mì Bảy Hổ,Chưa xác thực,,5.0,Kiểu Việt,100.000 vnd - 400.000 vnd,106.6958591,10.7725695,"Nhà Hàng Saigon Green House, 52, Trương Định, Phường Bến Thành, Quận 1, Thành phố Hồ Chí Minh, 71009, Việt Nam"
127,Bánh Mì Chim Chạy,+84 90 184 55 45,Đóng cửa sau 43 phút nữa:  Xem tất cả giờ,4.5,"Kiểu Á, Kiểu Việt, Thức ăn đường phố, Bữa sáng, Bữa trưa, Bữa tối",400.000 vnd - 700.000 vnd,106.6894706,10.7661304,"139, Đường Cống Quỳnh, Phường Nguyễn Cư Trinh, Quận 1, Thành phố Hồ Chí Minh, 70200, Việt Nam"
128,Banh mi Grandma Lu,+84 865243246,Đang mở cửa: 06:00 SA - 10:00 CH,5.0,"Bữa sáng, Bữa trưa, Bữa tối",400.000 vnd - 700.000 vnd,106.6960144,10.7494288,"Hẻm 861/52 Đường Trần Xuân Soạn, Phường Tân Hưng, Quận 7, Thành phố Hồ Chí Minh, 72800, Việt Nam"
129,Banh Mi Hoa Ma,+84 8 3839 6582,Đang đóng cửa:  Xem tất cả giờ,4.5,"Kiểu Á, Kiểu Việt, Bữa sáng, Bữa nửa buổi, Cửa hàng bán thức ăn mang về, Ngồi ngoài trời, Chỗ ngồi, Dịch vụ bàn",400.000 vnd - 700.000 vnd,106.7388608,10.8047556,"Phường Thảo Điền, Thành phố Thủ Đức, Thành phố Hồ Chí Minh, 71108, Việt Nam"
130,Bánh Mì Hồng Hoa,+84 90 881 15 92,,4.5,"Đồ ăn nhanh, Kiểu Á, Kiểu Việt, Bữa sáng, Bữa trưa, Bữa nửa buổi, Cửa hàng bán thức ăn mang về",400.000 vnd - 700.000 vnd,106.697273,10.784349,"Nhà Hàng Hồ Tây, 20, Trần Cao Vân, Phường Đa Kao, Quận 1, Thành phố Hồ Chí Minh, 77000, Việt Nam"
131,Banh Mi Huynh Hoa,+84 89 846 42 99,Đang mở cửa: 06:00 SA - 9:15 CH,4.5,"Đồ ăn nhanh, Kiểu Á, Kiểu Việt, Bữa trưa, Bữa tối, Đêm muộn, Cửa hàng bán thức ăn mang về",400.000 vnd - 700.000 vnd,106.6775363,10.7884826,"Chùa Long Vĩnh, Hẻm 386 Lê Văn Sỹ, Phường 14, Quận 3, Thành phố Hồ Chí Minh, 70150, Việt Nam"
132,Bánh Mì Má Hải,+84 93 886 87 75,,5.0,"Cửa hàng thức ăn ngon, Kiểu Việt, Thức ăn đường phố",20.000 vnd - 99.000 vnd,106.700107,10.7771971,"Nhà Hàng Hương Lài, 38, Lý Tự Trọng, Phường Bến Nghé, Quận 1, Thành phố Hồ Chí Minh, 71006, Việt Nam"
133,Bánh Mì Má Hải - Quận 10,+84 98 105 15 10,Đang mở cửa: 06:00 SA - 8:00 CH,5.0,"Đồ ăn nhanh, Cửa hàng thức ăn ngon, Kiểu Việt, Bữa sáng, Bữa trưa, Bữa tối",20.000 vnd - 99.000 vnd,106.7047286,10.6952565,"Hẻm 1368 Lê Văn Lương, Xã Phước Kiển, Huyện Nhà Bè, Thành phố Hồ Chí Minh, 72915, Việt Nam"
134,Bánh Mì Ngon Mỗi Ngày,+84 90 288 86 49,,4.0,Món kết hợp,400.000 vnd - 700.000 vnd,106.6700508,10.7530512,"40, Đường Trần Hưng Ðạo, Phường 7, Quận 5, Thành phố Hồ Chí Minh, 73009, Việt Nam"
135,Bánh Mì Nguyễn,+84 94 535 36 66,Đang mở cửa: 07:00 SA - 10:00 CH,5.0,"Kiểu Việt, Bữa sáng, Bữa trưa, Bữa tối",400.000 vnd - 700.000 vnd,106.7196746,10.8217817,"Thố - Nhà Hàng Ẩm Thực, Đường Số 18, Phường Hiệp Bình Chánh, Thành phố Thủ Đức, Thành phố Hồ Chí Minh, 50000, Việt Nam"
136,Bánh mì PAT,+84 122 707 2089,Đang mở cửa: 08:00 SA - 11:00 CH,4.5,"Cà phê, Bữa sáng, Bữa trưa, Bữa tối, Giao hàng, Cửa hàng bán thức ăn mang về, Có bãi đỗ xe, Lối vào ra cho xe lăn, Chỉ chấp nhận tiền mặt",400.000 vnd - 700.000 vnd,106.7009684,10.7905304,"Nhà Hàng Xẻng - Mồi & Bia, Hẻm 41 Đường Nguyễn Bỉnh Khiêm, Phường Đa Kao, Quận 1, Thành phố Hồ Chí Minh, 77000, Việt Nam"
137,Banh Mi Tuoi,+84 8 3822 2498,,4.5,"Kiểu Việt, Bữa nửa buổi",400.000 vnd - 700.000 vnd,106.7394281,10.8045285,"Cửa Hàng Đồ Nội Thất, 23, Đường Trần Ngọc Diện, Phường Thảo Điền, Thành phố Thủ Đức, Thành phố Hồ Chí Minh, 71108, Việt Nam"
138,Bánh mì Uptown District,+84 93 400 54 65,Đóng cửa sau 17 phút nữa:  Xem tất cả giờ,5.0,"Kiểu Á, Cửa hàng thức ăn ngon, Kiểu Việt, Phù hợp với người ăn chay",20.000 vnd - 99.000 vnd,106.700798,10.7732879,"Trung tâm mua sắm Saigon Centre, Nam Kỳ Khởi Nghĩa, Phường Bến Nghé, Quận 1, Thành phố Hồ Chí Minh, 00084, Việt Nam"
139,Bánh Năm,+84 28 6682 3178,,4.5,Kiểu Việt,100.000 vnd - 400.000 vnd,106.7007087,10.7200964,"B, Đường Nguyễn Hữu Thọ, Xã Phước Kiển, Huyện Nhà Bè, Thành phố Hồ Chí Minh, 72915, Việt Nam"
140,Bánh Ướt Ban Mê,+84 90 874 07 60,Đang mở cửa: 09:00 SA - 10:00 CH,4.5,"Kiểu Việt, Bữa sáng, Bữa trưa, Bữa tối",400.000 vnd - 700.000 vnd,106.7535504,10.7912605,"Cửa Hàng Điện Thoại Kiều Oanh, 41, Nguyễn Thị Định, Phường An Phú, Thành phố Thủ Đức, Thành phố Hồ Chí Minh, 70000, Việt Nam"
141,Bánh Xèo 46A,(08) 824 1110,,4.0,"Thức ăn đường phố, Kiểu Việt, Phù hợp với người ăn chay, Bữa trưa, Bữa tối, Bữa nửa buổi, Đêm muộn",400.000 vnd - 700.000 vnd,106.700798,10.7732879,"Trung tâm mua sắm Saigon Centre, Nam Kỳ Khởi Nghĩa, Phường Bến Nghé, Quận 1, Thành phố Hồ Chí Minh, 00084, Việt Nam"
142,Bánh Xèo Ăn Là Ghiền,+84 93 341 88 44,Đang mở cửa: 10:00 SA - 10:00 CH,4.0,"Kiểu Việt, Phù hợp với người ăn chay, Bữa trưa, Bữa tối",400.000 vnd - 700.000 vnd,106.7057169,10.7821147,"Tòa nhà CJ, 6, Lê Thánh Tôn, Phường Bến Nghé, Quận 1, Thành phố Hồ Chí Minh, 71006, Việt Nam"
143,Bánh Xèo Em Ơi!,+84 98 561 71 55,Đang mở cửa: 09:00 SA - 11:00 CH,4.5,"Kiểu Việt, Bữa trưa, Bữa sáng, Bữa tối, Bữa nửa buổi, Đêm muộn",400.000 vnd - 700.000 vnd,106.6942337,10.7805625,"PT Building, 180, Nam Kỳ Khởi Nghĩa, Phường Võ Thị Sáu, Quận 3, Thành phố Hồ Chí Minh, 71009, Việt Nam"
144,Bánh Xèo Mười Xiềm,+84 8 3925 3027,Đang mở cửa: 09:00 SA - 11:30 CH,3.5,"Kiểu Việt, Phù hợp với người ăn chay, Bữa trưa, Bữa tối",400.000 vnd - 700.000 vnd,106.7036128,10.7762617,"Khách sạn Caravelle Saigon, Công Trường Lam Sơn, Phường Bến Nghé, Quận 1, Thành phố Hồ Chí Minh, 71006, Việt Nam"
145,Bánh Xèo Nhật Bản,+84 90 476 31 63,Đang mở cửa: 10:00 SA - 2:00 CH4:30 CH - 11:00 CH,4.0,"Kiểu Nhật, Bữa trưa, Bữa tối, Đêm muộn, Đồ uống",100.000 vnd - 400.000 vnd,106.7295087,10.7206345,"Đường C, Phường Tân Phú, Quận 7, Thành phố Hồ Chí Minh, 72915, Việt Nam"
146,Bánh Xèo Nhật Okonomiyaki Miyakoya,+84 28 3620 0177,,5.0,Món kết hợp,400.000 vnd - 700.000 vnd,106.7349815,10.8036687,"ObsterScream, Xuân Thuỷ, Phường Thảo Điền, Thành phố Thủ Đức, Thành phố Hồ Chí Minh, 71108, Việt Nam"
147,Bao Bei Chinese Restaurant,+84 90 136 33 88,Đang mở cửa: 11:00 SA - 2:00 CH5:00 CH - 10:00 CH,4.5,"Kiểu Trung Quốc, Kiểu Á, Bữa trưa, Bữa tối, Bữa sáng, Bữa nửa buổi",100.000 vnd - 400.000 vnd,106.6972097,10.7735472,"Reisebüro, Thủ Khoa Huân, Phường Bến Thành, Quận 1, Thành phố Hồ Chí Minh, 71009, Việt Nam"
148,Baoz Dimsum,+84 8 3923 1480,Đang mở cửa: 06:30 SA - 2:00 CH4:00 CH - 11:00 CH,3.5,"Kiểu Trung Quốc, Kiểu Á, Bữa sáng, Bữa trưa, Bữa tối, Bữa nửa buổi",100.000 vnd - 400.000 vnd,106.6846869,10.7999697,"Bệnh Viện Hoàn Mỹ, Hẻm 293 Phan Xích Long, Phường 1, Quận Phú Nhuận, Thành phố Hồ Chí Minh, 72317, Việt Nam"
149,Baozi,+84 90 623 55 39,,4.0,"Kiểu Á, Bữa trưa, Bữa tối, Bữa nửa buổi, Đặt chỗ, Chỗ ngồi, Dịch vụ bàn, Cửa hàng bán thức ăn mang về, Phục vụ đồ uống có cồn",400.000 vnd - 700.000 vnd,106.7028181,10.7744727,"Fiditour Travel, Đường Nguyễn Huệ, Phường Bến Nghé, Quận 1, Thành phố Hồ Chí Minh, 71006, Việt Nam"
150,Bar 5 Saigon,+84 90 380 16 76,Đang mở cửa: 2:00 CH - 12:00 SA,4.0,"Kiểu Việt, Kiểu Mỹ, Kiểu Đức, Bữa tối, Đêm muộn",100.000 vnd - 400.000 vnd,106.692281,10.76678,"Cà Phê 6k, Hẻm 148 Đường Bùi Viện, Phường Phạm Ngũ Lão, Quận 1, Thành phố Hồ Chí Minh, 70200, Việt Nam"
151,Bar Son,+84 55 922 7766,Đang mở cửa: 07:00 SA - 12:00 SA,5.0,"Món kết hợp, Quầy rượu vang, Quán bar phục vụ đồ ăn, Quầy bar, Quán rượu, Nhà hàng bia, Bữa tối, Bữa nửa buổi, Đêm muộn, Đồ uống",1.000.000 vnd - 10.000.000 vnd,106.729679,10.8046779,"Đường Thái Ly, Phường Thảo Điền, Thành phố Thủ Đức, Thành phố Hồ Chí Minh, 71107, Việt Nam"
152,Barb Wire Saigon,+84 377 223 090,Đang mở cửa: 10:30 SA - 01:00 SA,5.0,"Kiểu Mexico, Kiểu Mỹ, Kiểu Việt, Bữa trưa, Bữa tối, Đêm muộn, Đồ uống, Giao hàng, Cửa hàng bán thức ăn mang về, Ngồi ngoài trời, Chỗ ngồi, Bãi đỗ xe đường phố, Có ghế ăn cho bé, Phục vụ đồ uống có cồn, Quầy bar đầy đủ, Rượu và bia, Chấ",400.000 vnd - 700.000 vnd,106.7061879,10.7727782,"Majestic Hotel, Đường Ðồng Khởi, Phường Bến Nghé, Quận 1, Thành phố Hồ Chí Minh, 71006, Việt Nam"
153,Barbecue Garden,+84 28 3823 3340,Đang mở cửa: 11:00 SA - 11:00 CH,4.5,"Bữa trưa, Bữa tối",400.000 vnd - 700.000 vnd,106.6655852,10.7630802,"Hẻm 383 Vĩnh Viễn, Phường 5, Quận 10, Thành phố Hồ Chí Minh, 72000, Việt Nam"
154,Barbecue Garden Restaurant,+84 93 212 15 00,Đang mở cửa: 09:00 SA - 11:00 CH,4.0,"Đồ nướng, Kiểu Á, Thịt nướng, Phù hợp với người ăn chay, Tùy chọn ăn chay, Tùy chọn đồ ăn không có gluten",100.000 vnd - 400.000 vnd,106.6589062,10.8003568,"Vincom Cộng Hoà, Hẻm 238 Hoàng Văn Thụ, Phường 4, Quận Tân Bình, Thành phố Hồ Chí Minh, 72106, Việt Nam"
155,Bar's Bar,+84 8 3822 3352,,4.5,"Quầy bar, Quán rượu, Quầy rượu vang, Đồ uống, Phục vụ đồ uống có cồn",400.000 vnd - 700.000 vnd,106.6583561,10.7528019,"東源, Đường Nguyễn Trãi, Phường 14, Quận 5, Thành phố Hồ Chí Minh, 73009, Việt Nam"
156,Basilico,+84 28 3520 9099,Đang mở cửa: 06:30 SA - 10:30 CH,4.0,"Kiểu Ý, Pizza, Kiểu Địa Trung Hải, Phù hợp với người ăn chay, Tùy chọn ăn chay, Tùy chọn đồ ăn không có gluten, Bữa trưa, Bữa tối, Bữa nửa buổi, Đồ uống",400.000 vnd - 700.000 vnd,106.6837346,10.7744613,"252, Đường Nguyễn Thượng Hiền, Phường 4, Quận 3, Thành phố Hồ Chí Minh, 72406, Việt Nam"
157,Bason Cafe,+84 28 3520 3040,Đang mở cửa: 07:00 SA - 10:30 CH,4.5,"Quầy bar, Cà phê, Kiểu Âu, Quán rượu, Kiểu Việt, Kiểu Nam Mỹ, Kiểu Trung Mỹ, Bữa sáng, Bữa trưa, Bữa tối, Bữa nửa buổi, Đồ uống",100.000 vnd - 400.000 vnd,106.6980975,10.7831656,"Nhà Hàng Saiko Sushi, Nguyễn Thị Minh Khai, Phường Đa Kao, Quận 1, Thành phố Hồ Chí Minh, 77000, Việt Nam"
158,Basta Hiro - Pasta & Pizza,+84 28 3823 1888,,5.0,"Pizza, Kiểu Ý, Nhà hàng bít tết, Quầy rượu vang, Bữa trưa, Bữa tối",100.000 vnd - 400.000 vnd,106.6986609,10.7854945,"Highlands Coffee, Mạc Đĩnh Chi, Phường Đa Kao, Quận 1, Thành phố Hồ Chí Minh, 77000, Việt Nam"
159,Basta Hiro - Pizza & Pasta,+84 8 3821 8849,Đang mở cửa: 10:00 SA - 10:00 CH,4.0,"Kiểu Ý, Pizza, Kiểu Âu, Phù hợp với người ăn chay, Tùy chọn ăn chay",100.000 vnd - 400.000 vnd,106.692325,10.7715471,"Khách Sạn Cinnamon, Đường Lê Thị Riêng, Phường Bến Thành, Quận 1, Thành phố Hồ Chí Minh, 70200, Việt Nam"
160,Basta Hiro - Vincom Center Đồng Khởi,+84 28 3822 6999,,4.5,"Kiểu Nhật, Nhà hàng bít tết, Pizza, Kiểu Ý, Phù hợp với người ăn chay, Tùy chọn ăn chay",100.000 vnd - 400.000 vnd,106.6814775,10.7811937,"Hang đá Đức Mẹ, Đường Kỳ Ðồng, Phường 9, Quận 3, Thành phố Hồ Chí Minh, 70150, Việt Nam"
161,Basta Hiro Hai Bà Trưng,+84 28 3521 2985,Đang mở cửa: 10:30 SA - 11:30 CH,4.0,"Pizza, Quán rượu, Kiểu Bữa tối, Kiểu Ý, Kiểu Âu, Bữa tối, Bữa trưa",1.000.000 vnd - 10.000.000 vnd,106.7065657,10.7811074,"24a, Ngô Văn Năm, Phường Bến Nghé, Quận 1, Thành phố Hồ Chí Minh, 77000, Việt Nam"
162,bb.q Chicken Premium,+84 1900 8994,Đang mở cửa: 12:00 SA - 11:59 CH,4.0,"Kiểu Á, Kiểu Hàn Quốc, Bữa sáng, Bữa trưa, Bữa tối",100.000 vnd - 400.000 vnd,106.7289768,10.7395521,"Saigon Sports Club, Hẻm 514b Huỳnh Tấn Phát, Phường Bình Thuận, Quận 7, Thành phố Hồ Chí Minh, 72915, Việt Nam"
163,BBQ & Beer De Salita,+84 8 3827 3622,Đang mở cửa: 11:00 SA - 02:00 SA,4.0,"Đồ nướng, Phù hợp với người ăn chay, Tùy chọn đồ ăn không có gluten",100.000 vnd - 400.000 vnd,106.68384,10.7667681,"Trường cấp 1 Phan văn Trị, Phạm Viết Chánh, Phường Nguyễn Cư Trinh, Quận 1, Thành phố Hồ Chí Minh, 70200, Việt Nam"
164,BBQ Ông Mập,Chưa xác thực,Đang mở cửa: 11:00 SA - 12:00 SA,5.0,"Bữa trưa, Bữa tối",400.000 vnd - 700.000 vnd,106.6818508,10.7643902,"Trường THPT Chuyên Lê Hồng Phong, 235, Nguyễn Văn Cừ, Phường 4, Quận 5, Thành phố Hồ Chí Minh, 72406, Việt Nam"
165,BBQ Plan-K,+84 28 3519 0171,,4.0,"Kiểu Mỹ, Kiểu Âu, Kiểu Argentina",400.000 vnd - 700.000 vnd,106.7336689,10.7167324,"Đường Số 3, Phường Phú Mỹ, Quận 7, Thành phố Hồ Chí Minh, 72915, Việt Nam"
166,BBQ Saigon Night - BÀ SÁU BÙI VIỆN,+84 90 823 07 21,Đang mở cửa: 5:00 CH - 04:00 SA,5.0,"Hải sản, Đồ nướng, Kiểu Á, Thịt nướng, Bản địa, Bữa tối",400.000 vnd - 700.000 vnd,106.6966801,10.7869288,"Ủy Ban Mặt Trận Tổ Quốc Việt Nam, Mạc Đĩnh Chi, Phường Đa Kao, Quận 1, Thành phố Hồ Chí Minh, 77000, Việt Nam"
167,B-Dubs,+84 1900 6996,,4.0,"Kiểu Mỹ, Nhà hàng bán bia, Quán rượu",100.000 vnd - 400.000 vnd,106.68207,10.7650012,"Khách sạn Nikko Saigon, 235, Nguyễn Văn Cừ, Phường Nguyễn Cư Trinh, Quận 1, Thành phố Hồ Chí Minh, 72406, Việt Nam"
168,Be Hokkaido,+84 93 394 10 33,Đang mở cửa: 11:00 SA - 11:00 CH,4.0,"Bữa trưa, Bữa tối, Đặt chỗ",400.000 vnd - 700.000 vnd,106.753608,10.8090715,"4, Đường Đặng Tiến Đông, Phường An Phú, Thành phố Thủ Đức, Thành phố Hồ Chí Minh, 71108, Việt Nam"
169,Bê Vàng,+84 8 3877 9166,,4.5,Món kết hợp,400.000 vnd - 700.000 vnd,106.6979897,10.773614,"Phường Bến Thành, Quận 1, Thành phố Hồ Chí Minh, 71009, Việt Nam"
170,Bearloga - Shisha Place,+84 70 7302 443,Đang mở cửa: 09:00 SA - 02:00 SA,5.0,"Bữa sáng, Bữa trưa, Bữa tối, Đêm muộn, Đồ uống, Giao hàng, Cửa hàng bán thức ăn mang về, Đặt chỗ, Ngồi ngoài trời, Ăn tối phòng riêng, Chỗ ngồi, Có bãi đỗ xe, Bãi đỗ xe đường phố, Bãi đỗ xe tập trung miễn phí, Tivi, Có ghế ăn cho bé, Lối và",400.000 vnd - 700.000 vnd,106.7289724,10.8011741,"Đường Số 54, Phường Thảo Điền, Thành phố Thủ Đức, Thành phố Hồ Chí Minh, 71108, Việt Nam"
171,Beck’s Coffee,+84 28 3636 3114,,5.0,"Kiểu Ý, Kiểu Việt",20.000 vnd - 99.000 vnd,106.7114742,10.791896,"Tartine Saigon, Hẻm 72/24 Ngô Tất Tố, Phường 19, Quận Bình Thạnh, Thành phố Hồ Chí Minh, 77000, Việt Nam"
172,Beef Bar,+84 126 879 8963,Đang mở cửa: 07:30 SA - 10:00 CH,4.0,"Nhà hàng bít tết, Bữa trưa, Bữa tối, Bữa sáng",100.000 vnd - 400.000 vnd,106.6950398,10.7709251,"New World Hotel, 76, Đường Lê Lai, Phường Bến Thành, Quận 1, Thành phố Hồ Chí Minh, 71009, Việt Nam"
173,Beefsteak TiTi,+84 89 886 60 89,Đang mở cửa: 08:00 SA - 10:00 CH,4.5,"Kiểu Bữa tối, Kiểu Pháp, Nhà hàng bít tết, Cửa hàng thức ăn ngon, Quán rượu, Quán rượu đặc sản, Bữa sáng, Bữa trưa, Bữa tối, Bữa nửa buổi, Đồ uống",100.000 vnd - 400.000 vnd,106.697593,10.769811,"Saigon Coffee Roastery 2, Ðặng Thị Nhu, Phường Nguyễn Thái Bình, Quận 1, Thành phố Hồ Chí Minh, 71010, Việt Nam"
174,Beer & Barrel,+84 94 335 55 65,Đang mở cửa: 10:30 SA - 11:30 CH,4.5,"Kiểu Bỉ, Quầy bar, Kiểu Âu, Phù hợp với người ăn chay, Bữa trưa, Bữa tối, Đêm muộn, Đồ uống",400.000 vnd - 700.000 vnd,106.695665,10.76715,"Phường Cầu Ông Lãnh, Quận 1, Thành phố Hồ Chí Minh, 71010, Việt Nam"
175,Beirut - Mediterranean Kitchen & Lounge,+84 28 3822 2188,Đang mở cửa: 11:00 SA - 01:00 SA,4.0,"Kiểu Li băng, Kiểu Địa Trung Hải, Kiểu Trung Đông, Quốc tế, Phù hợp với người ăn chay, Tùy chọn ăn chay, Thịt kiểu Hồi giáo, Tùy chọn đồ ăn không có gluten",700.000 vnd - 1.000.000 vnd,106.6928559,10.7903649,"19/2B, Đường Thạch Thị Thanh, Phường Tân Định, Quận 1, Thành phố Hồ Chí Minh, 72210, Việt Nam"
176,Beirut Restaurant - Villa & Pool,+84 28 3822 2188,Đang mở cửa: 3:00 CH - 01:00 SA,3.5,"Quầy bar, Kiểu Địa Trung Hải, Quán rượu, Kiểu Ả Rập, Bữa trưa, Bữa tối",100.000 vnd - 400.000 vnd,106.700068,10.7861912,"Hẻm 18B Nguyễn Thị Minh Khai, Phường Đa Kao, Quận 1, Thành phố Hồ Chí Minh, 77000, Việt Nam"
177,Belgo Belgian Craft Beer Brewery - Le Ngo Cat,+84 28 3620 5212,Đang mở cửa: 11:00 SA - 11:30 CH,5.0,"Kiểu Bỉ, Kiểu Âu, Quán rượu, Quán rượu đặc sản, Nhà hàng bia, Bữa tối, Bữa trưa, Bữa nửa buổi, Đêm muộn, Đồ uống",400.000 vnd - 700.000 vnd,106.6996175,10.7632079,"Căn Hộ Masteri Millennium, 132, Bến Vân Đồn, Phường 6, Quận 4, Thành phố Hồ Chí Minh, 70000, Việt Nam"
178,Bella Italia,+84 865 210 236,Đang đóng cửa:  Xem tất cả giờ,5.0,"Kiểu Ý, Pizza, Cà phê, Cửa hàng thức ăn ngon, Miền Bắc nước Ý, Bữa sáng, Bữa trưa, Bữa tối, Bữa nửa buổi, Đồ uống",100.000 vnd - 400.000 vnd,106.6645352,10.7992721,"Bảo tàng Lực lượng Vũ trang miền Đông Nam Bộ, Hẻm 6 Phạm Văn Hai, Phường 1, Quận Tân Bình, Thành phố Hồ Chí Minh, 72106, Việt Nam"
179,Bến Đò Quán,+84 28 3898 7124,,4.5,Món kết hợp,400.000 vnd - 700.000 vnd,106.6905348,10.7694283,"Sushi Hokkaido Sachi - Nguyễn Trãi, Nguyễn Trãi, Phường Bến Thành, Quận 1, Thành phố Hồ Chí Minh, 70200, Việt Nam"
180,Ben Thanh Café & Beer,+84 38 277 333,Đang mở cửa: 10:00 SA - 01:00 SA,4.5,"Bữa trưa, Bữa tối, Đặt chỗ, Wifi miễn phí",400.000 vnd - 700.000 vnd,106.6627735,10.7817414,"Trạm Xe Bus Trường Sơn, Trường Sơn, Phường 15, Quận 10, Thành phố Hồ Chí Minh, 72117, Việt Nam"
181,Benaras Heights (Fiery Tandoor & Rooftop Bar),+84 98 515 70 15,Đang mở cửa: 5:00 CH - 11:00 CH,5.0,"Kiểu Ấn Độ, Quầy bar, Đồ nướng, Kiểu Á, Thịt nướng, Quán rượu, Phù hợp với người ăn chay, Tùy chọn ăn chay",700.000 vnd - 1.000.000 vnd,106.6930475,10.7704074,"City Backpackers Hostel, Hẻm 7 Nguyễn Trãi, Phường Bến Thành, Quận 1, Thành phố Hồ Chí Minh, 70200, Việt Nam"
182,Benaras Indian Bistro,+84 98 343 33 40,Đang mở cửa: 10:00 SA - 11:00 CH,5.0,"Kiểu Ấn Độ, Phù hợp với người ăn chay, Tùy chọn ăn chay, Thịt kiểu Hồi giáo, Tùy chọn đồ ăn không có gluten",100.000 vnd - 400.000 vnd,106.7097697,10.732361,"Quán Bar Harry Casual, 49, Hưng Gia 3, Hưng Gia III, Phường Tân Phong, Quận 7, Thành phố Hồ Chí Minh, 72915, Việt Nam"
183,Benstyle Sandwich,+84 90 691 27 30,,4.5,"Tốt cho sức khỏe, Giao hàng",400.000 vnd - 700.000 vnd,106.7044603,10.7705126,"Nhà Hàng Don Chicken, Hồ Tùng Mậu, Phường Nguyễn Thái Bình, Quận 1, Thành phố Hồ Chí Minh, 72806, Việt Nam"
184,Bếp Huế,+84 28 2245 0707,Đang mở cửa: 07:30 SA - 9:00 CH,4.5,"Đồ ăn nhanh, Kiểu Việt, Kiểu Bữa tối, Thức ăn đường phố, Kiểu Á, Phù hợp với người ăn chay",100.000 vnd - 400.000 vnd,106.6274552,10.7802935,"Quách Đình Bảo, Phường Phú Thạnh, Quận Tân Phú, Thành phố Hồ Chí Minh, 72012, Việt Nam"
185,Bếp Mẹ ỉn,+84 28 2211 1119,Đang mở cửa: 10:30 SA - 10:30 CH,4.5,"Kiểu Việt, Kiểu Á, Tốt cho sức khỏe, Thức ăn đường phố, Phù hợp với người ăn chay, Tùy chọn ăn chay, Tùy chọn đồ ăn không có gluten",100.000 vnd - 400.000 vnd,106.7023237,10.7697006,"Tabak, Hẻm 100 Nguyễn Công Trứ, Phường Nguyễn Thái Bình, Quận 1, Thành phố Hồ Chí Minh, 71010, Việt Nam"
186,Bếp Nhà Lục Tỉnh,+84 8 3915 3999,Đang mở cửa: 10:00 SA - 10:00 CH,4.0,"Kiểu Việt, Kiểu Á, Phù hợp với người ăn chay, Tùy chọn ăn chay, Bữa trưa, Bữa tối, Bữa nửa buổi",400.000 vnd - 700.000 vnd,106.6966486,10.7715679,"Công Ty Du Lịch Bismillah Tours, Nguyễn An Ninh, Phường Bến Thành, Quận 1, Thành phố Hồ Chí Minh, 71009, Việt Nam"
187,Bếp Nhà Xứ Quảng,+84 28 3827 2709,Đang mở cửa: 10:00 SA - 10:00 CH,4.0,"Kiểu Việt, Phù hợp với người ăn chay, Tùy chọn ăn chay",400.000 vnd - 700.000 vnd,106.7084403,10.7272152,"Mỹ Khánh III, Phạm Thái Bường, Phường Tân Phong, Quận 7, Thành phố Hồ Chí Minh, 72915, Việt Nam"
188,Bếp Nội Nhà Làm,+84 93 330 19 01,,5.0,"Kiểu Việt, Bữa tối",100.000 vnd - 400.000 vnd,106.6965715,10.7848475,"Toà Nhà Empress, 138-142, Đường Hai Bà Trưng, Phường Đa Kao, Quận 1, Thành phố Hồ Chí Minh, 71006, Việt Nam"
189,Bep Oc Sai Gon,+84 28 3825 1676,Đang mở cửa: 11:00 SA - 11:00 CH,5.0,"Hải sản, Kiểu Việt, Thức ăn đường phố, Bữa trưa, Bữa tối",400.000 vnd - 700.000 vnd,106.6937237,10.7692803,"Nhà Hàng Nanna's, Phạm Ngũ Lão, Phường Phạm Ngũ Lão, Quận 1, Thành phố Hồ Chí Minh, 70200, Việt Nam"
190,Bếp Thuần Chay,+84 28 3510 6698,,4.5,"Cà phê, Kiểu Âu, Kiểu Việt, Kiểu Bữa tối, Tốt cho sức khỏe, Kiểu Á, Bữa tối, Bữa trưa",100.000 vnd - 400.000 vnd,106.6727062,10.7531767,"MariO Hotel, 940-942, Đường Trần Hưng Ðạo, Phường 7, Quận 5, Thành phố Hồ Chí Minh, 73009, Việt Nam"
191,Bep Vo,+84 33 900 2129,,5.0,"Kiểu Á, Kiểu Việt, Phù hợp với người ăn chay, Tùy chọn ăn chay",100.000 vnd - 400.000 vnd,106.6977231,10.7898044,"A Priori Coffee, 18, Đường Nguyễn Thành Ý, Phường Đa Kao, Quận 1, Thành phố Hồ Chí Minh, 70000, Việt Nam"
192,Bếp Xanh An Duyên,+(84)22129947,Đang mở cửa: 10:00 SA - 10:00 CH,5.0,"Kiểu Á, Kiểu Việt, Kiểu Bữa tối, Tốt cho sức khỏe, Bữa sáng, Bữa nửa buổi, Đồ uống, Bữa trưa, Bữa tối",100.000 vnd - 400.000 vnd,106.7039368,10.7770723,"Cây đàn Việt Nam, Công Trường Lam Sơn, Phường Bến Nghé, Quận 1, Thành phố Hồ Chí Minh, 71006, Việt Nam"
193,Betty Sky Lounge,+84 122 266 6555,,4.0,"Quầy bar, Quán rượu, Đồ uống, Đặt chỗ",400.000 vnd - 700.000 vnd,106.7389904,10.8030423,"An Cafe, Đường Trần Ngọc Diện, Phường Thảo Điền, Thành phố Thủ Đức, Thành phố Hồ Chí Minh, 71108, Việt Nam"
194,Bia hoi Ha Noi,+84 28 3848 8896,,5.0,Món kết hợp,400.000 vnd - 700.000 vnd,106.6648366,10.8040348,"Trạm Xe Bus Nhà hàng Vườn Dừa, Phan Đình Giót, Phường 2, Quận Tân Bình, Thành phố Hồ Chí Minh, 72106, Việt Nam"
195,BiaCraft Artisan Ales - Truong Sa,+84 28 3517 3000,Đang mở cửa: 11:00 SA - 11:00 CH,4.5,"Thịt nướng, Bữa trưa, Bữa tối, Đặt chỗ",400.000 vnd - 700.000 vnd,106.688106,10.7914999,"Đường Trần Quang Khải, Phường Tân Định, Quận 1, Thành phố Hồ Chí Minh, 72210, Việt Nam"
196,BiaCraft Artisan Ales - Xuan Thuy,+84 28 3744 2588,Đang mở cửa: 11:00 SA - 11:00 CH,4.5,"Quầy bar, Quán rượu, Nhà hàng bán bia, Bữa trưa, Bữa tối",100.000 vnd - 400.000 vnd,106.6805657,10.7866896,"Trường Đại học Sư phạm TP.HCM (cơ sở 2), 222, Lê Văn Sỹ, Phường 14, Quận 3, Thành phố Hồ Chí Minh, 70150, Việt Nam"
197,BIBI at Alibi,+84 8 3825 6257,Mở cửa sau 3 phút nữa:  Xem tất cả giờ,4.0,"Kiểu Pháp, Kiểu Âu, Bữa trưa, Bữa tối, Đêm muộn",700.000 vnd - 1.000.000 vnd,106.7300456,10.8067408,"Nhà Hàng La Crêperie, số 16, Road No. 43, Phường Thảo Điền, Thành phố Thủ Đức, Thành phố Hồ Chí Minh, 71107, Việt Nam"
198,Bibulous,+84 90 984 78 45,Đang mở cửa: 5:00 CH - 12:00 SA,5.0,"Bữa tối, Chỗ ngồi, Dịch vụ bàn, Đặt chỗ",400.000 vnd - 700.000 vnd,106.715264,10.720508,"The Panorama 11, Đường Trần Văn Trà, Phường Tân Phong, Quận 7, Thành phố Hồ Chí Minh, 72915, Việt Nam"
199,Bien Dong 6,+84 8 3833 6054,,4.5,"Kiểu Á, Bữa tối, Dịch vụ bàn, Chỗ ngồi",400.000 vnd - 700.000 vnd,106.6962626,10.7844192,"Khách Sạn Novotel Saigon Centre, 167, Đường Hai Bà Trưng, Phường Đa Kao, Quận 1, Thành phố Hồ Chí Minh, 71006, Việt Nam"
200,Bien Toui Tiep,Chưa xác thực,,4.5,Kiểu Việt,100.000 vnd - 400.000 vnd,106.7000103,10.7791522,"get sim card, Công Trường Công Xã Paris, Phường Bến Nghé, Quận 1, Thành phố Hồ Chí Minh, 71006, Việt Nam"
201,Bier Garden,+84 28 3521 0691,Đang mở cửa: 07:00 SA - 11:45 CH,4.0,"Quầy bar, Kiểu Á, Quán rượu, Kiểu Việt, Quốc tế, Phù hợp với người ăn chay, Bữa trưa, Bữa tối, Đêm muộn, Đồ uống",400.000 vnd - 700.000 vnd,106.6974474,10.782756,"Toà nhà Centec Tower, 72-74, Nguyễn Thị Minh Khai, Phường Võ Thị Sáu, Quận 3, Thành phố Hồ Chí Minh, 71006, Việt Nam"
202,BIG PIG Bar - BBQ - Beer,+84 28 6270 3907,Đang mở cửa: 07:00 SA - 11:00 CH,5.0,"Kiểu Mỹ, Pizza, Kiểu Á, Kiểu Việt, Bữa sáng, Bữa trưa, Bữa tối, Đêm muộn, Đồ uống, Giao hàng, Cửa hàng bán thức ăn mang về, Đặt chỗ, Ăn tối phòng riêng, Chỗ ngồi, Tivi, Phục vụ đồ uống có cồn, Quầy bar đầy đủ, Rượu và bia, Chấp nhận th",400.000 vnd - 700.000 vnd,106.700525,10.774837,"Cửa Hàng Thời Trang Maison, 63, Đường Pasteur, Phường Bến Nghé, Quận 1, Thành phố Hồ Chí Minh, 00084, Việt Nam"
203,"Big Pig Bar - BBQ - Beer (46 Truong Son, Tan Binh)",+84 28 3547 4034,Đang mở cửa: 08:00 SA - 11:00 CH,4.0,"Kiểu Mỹ, Pizza, Thịt nướng, Kiểu Việt, Quầy bar, Đồ nướng, Quán rượu, Bữa trưa, Bữa tối, Đêm muộn, Đồ uống",100.000 vnd - 400.000 vnd,106.6953507,10.7651336,"Cà Phê - Khách Sạn M.O.M, 39A, Cô Bắc, Phường Cô Giang, Quận 1, Thành phố Hồ Chí Minh, 71010, Việt Nam"
204,Bigbang Korean BBQ,+84 93 151 42 47,Đang mở cửa: 10:00 SA - 10:00 CH,5.0,"Bữa trưa, Bữa tối",400.000 vnd - 700.000 vnd,106.6980638,10.7787276,"Nhà Hàng Propaganda Saigon Bistro, 21, Đường Hàn Thuyên, Phường Bến Nghé, Quận 1, Thành phố Hồ Chí Minh, 71006, Việt Nam"
205,Bigbro Korean Hotdog,+84 28 2240 5060,,4.5,"Kiểu Á, Kiểu Hàn Quốc",400.000 vnd - 700.000 vnd,106.7027213,10.7886777,"Hẻm 10 Nguyễn Thị Minh Khai, Phường Đa Kao, Quận 1, Thành phố Hồ Chí Minh, 77000, Việt Nam"
206,Biker Shield Bistro,+84 88 801 58 10,Đang mở cửa: 07:00 SA - 11:00 CH,4.5,"Bữa trưa, Bữa tối, Bữa sáng",400.000 vnd - 700.000 vnd,106.7046841,10.7755138,"Khách Sạn Saigon River, 58, Mạc Thị Bưởi, Phường Bến Nghé, Quận 1, Thành phố Hồ Chí Minh, 00084, Việt Nam"
207,Bingsu - Hanbok,8462911551,Đang mở cửa: 08:30 SA - 10:30 CH,4.5,"Kiểu Á, Kiểu Hàn Quốc, Bữa sáng, Bữa trưa, Bữa tối",100.000 vnd - 400.000 vnd,106.6992778,10.7769024,"Savico Building, Pastier, Phường Bến Nghé, Quận 1, Thành phố Hồ Chí Minh, 71006, Việt Nam"
208,Binh Xuyen,08.54.316,,3.5,"Kiểu Á, Kiểu Việt, Bữa tối, Bữa trưa, Đặt chỗ, Chỗ ngồi, Lối vào ra cho xe lăn, Dịch vụ bàn",400.000 vnd - 700.000 vnd,106.6988919,10.7592647,"Mì Quảng Phan, Đường Khánh Hội, Phường 6, Quận 4, Thành phố Hồ Chí Minh, 72800, Việt Nam"
209,Birdie Club,+84 28 2253 9600,Đang mở cửa: 11:00 SA - 2:00 CH5:00 CH - 12:00 SA,5.0,"Kiểu Nhật, Quầy bar, Quán rượu, Kiểu Ý, Bữa trưa, Bữa tối, Đêm muộn, Đồ uống",1612358 vnd - 5.000.000 vnd,106.7044311,10.7770117,"Xu Bar - Hai Bà Trưng, Hai Bà Trưng, Phường Bến Nghé, Quận 1, Thành phố Hồ Chí Minh, 71006, Việt Nam"
210,Bistro 48 SaiGon,+84 8 3833 2932,Đang mở cửa: 07:00 SA - 11:00 CH,3.5,"Bữa tối, Bữa trưa, Đặt chỗ, Chỗ ngồi, Phục vụ đồ uống có cồn, Dịch vụ bàn",400.000 vnd - 700.000 vnd,106.6974691,10.7740978,"Cửa Hàng Thời Trang An Phước, 119, Lý Tự Trọng, Phường Bến Thành, Quận 1, Thành phố Hồ Chí Minh, 71009, Việt Nam"
211,Bistro Song Vie,+84 28 3744 6090,Đang mở cửa: 06:00 SA - 10:00 CH,4.0,"Kiểu Á, Quốc tế, Kiểu Âu, Phù hợp với người ăn chay, Tùy chọn ăn chay, Tùy chọn đồ ăn không có gluten",400.000 vnd - 700.000 vnd,106.7462477,10.8061292,"Nguyễn Ư Dĩ, Phường Thảo Điền, Thành phố Thủ Đức, Thành phố Hồ Chí Minh, 71108, Việt Nam"
212,Black Vinegar,+84 91 439 11 71,Đang mở cửa: 11:30 SA - 3:00 CH5:30 CH - 10:30 CH,5.0,"Kiểu Trung Quốc, Đương đại, Bữa trưa, Bữa tối, Có thẻ quà tặng",400.000 vnd - 700.000 vnd,106.7031707,10.7757628,"151, Đường Ðồng Khởi, Phường Bến Nghé, Quận 1, Thành phố Hồ Chí Minh, 71006, Việt Nam"
213,Blanc. Restaurant,+84 28 6266 3535,Đang mở cửa: 5:30 CH - 10:00 CH,5.0,"Kiểu Á, Món kết hợp, Phù hợp với người ăn chay, Tùy chọn ăn chay, Tùy chọn đồ ăn không có gluten",100.000 vnd - 400.000 vnd,106.7043912,10.7719839,"Bitexco Financial Tower, 02, Hải Triều, Phường Bến Nghé, Quận 1, Thành phố Hồ Chí Minh, 00084, Việt Nam"
214,Blank Lounge Landmark,+84 90 367 29 44,Đang mở cửa: 09:30 SA - 12:00 SA,4.5,"Quầy bar, Cà phê, Quán rượu, Quầy rượu vang, Quốc tế, Đồ uống",400.000 vnd - 700.000 vnd,106.6983832,10.7672387,"Trạm Xe Bus Ký Con, Đường Ký Con, Phường Nguyễn Thái Bình, Quận 1, Thành phố Hồ Chí Minh, 71010, Việt Nam"
215,Bloom Saigon Restaurant (Non-Profit Restaurant),+84 8 3910 1277,Đang mở cửa: 10:30 SA - 2:30 CH5:00 CH - 10:00 CH,4.5,"Kiểu Á, Kiểu Việt, Món kết hợp, Phù hợp với người ăn chay, Tùy chọn ăn chay, Tùy chọn đồ ăn không có gluten",400.000 vnd - 700.000 vnd,106.7044932,10.7862495,"Toà Nhà Petrolimex, 1, Hẻm 11B Đường Nguyễn Bỉnh Khiêm, Phường Bến Nghé, Quận 1, Thành phố Hồ Chí Minh, 77000, Việt Nam"
216,Blu Bar & Grill,+84 90 337 14 17,,4.5,"Kiểu Mỹ, Quầy bar, Quốc tế, Kiểu Á, Quán rượu, Kiểu Việt",400.000 vnd - 700.000 vnd,106.6932278,10.7720757,"Nhà Hàng Cycloresto, Unit 28, Hẻm 6 Đường Cách Mạng Tháng 8, Phường Bến Thành, Quận 1, Thành phố Hồ Chí Minh, 71009, Việt Nam"
217,Blue Gecko Bar,+84 8 3824 3483,,3.5,"Quầy bar, Quán rượu, Kiểu Úc, Đồ uống, Chỗ ngồi, Tivi, Phục vụ đồ uống có cồn, Quầy bar đầy đủ, Dịch vụ bàn",400.000 vnd - 700.000 vnd,106.7304438,10.809451,"Hẻm 92 Đường Quốc Hương, Phường Thảo Điền, Thành phố Thủ Đức, Thành phố Hồ Chí Minh, 71107, Việt Nam"
218,Blue Sky Restaurant/ Elios Hotel,+84 8 3838 5584,,4.5,"Quầy bar, Kiểu Á, Quán rượu, Bữa sáng, Chỗ ngồi",400.000 vnd - 700.000 vnd,106.7022555,10.7735647,"Chung cư 42 Tôn Thất Thiệp, 42, Tôn Thất Thiệp, Phường Bến Nghé, Quận 1, Thành phố Hồ Chí Minh, 00084, Việt Nam"
219,Bò - Lế - Rồ,+84 1900 636123,,5.0,Món kết hợp,400.000 vnd - 700.000 vnd,106.6906453,10.7674629,"Lucy Saigon Hotel, Đường Ðỗ Quang Ðẩu, Phường Phạm Ngũ Lão, Quận 1, Thành phố Hồ Chí Minh, 70200, Việt Nam"
220,Bò 33 Món Restaurant,+84 8 3517 0417,,5.0,"Kiểu Việt, Thịt nướng, Bữa tối, Đặt chỗ, Chỗ ngồi, Dịch vụ bàn",400.000 vnd - 700.000 vnd,106.700451,10.7746788,"Khách sạn Liberty Central Sài Gòn CityPoint, 59 - 61, Đường Pasteur, Phường Bến Nghé, Quận 1, Thành phố Hồ Chí Minh, 00084, Việt Nam"
221,Bố Già: Kem - Cà Phê - Nhà Hàng,+84 8 3526 0235,,4.0,Kiểu Á,400.000 vnd - 700.000 vnd,106.7346019,10.806487,"Nhà Hàng Pasha Garden Lounge, 37, Tống Hữu Định, Phường Thảo Điền, Thành phố Thủ Đức, Thành phố Hồ Chí Minh, 71108, Việt Nam"
222,Bò Kho Cô Mai - Since 1984 - Thăng Long,+84 96 777 77 77,Đang mở cửa: 07:00 SA - 10:00 CH,4.5,"Cửa hàng thức ăn ngon, Kiểu Việt, Tốt cho sức khỏe, Súp, Bữa sáng, Bữa trưa, Bữa tối, Đồ uống",20.000 vnd - 99.000 vnd,106.704724,10.775529,"Khách Sạn Saigon River, 58, Mạc Thị Bưởi, Phường Bến Nghé, Quận 1, Thành phố Hồ Chí Minh, 00084, Việt Nam"
223,Bò Kho Tròn,+84 97 337 09 57,Đang mở cửa: 06:30 SA - 1:00 CH4:00 CH - 9:00 CH,5.0,"Kiểu Việt, Bữa sáng, Bữa trưa, Bữa tối, Bữa nửa buổi",20.000 vnd - 99.000 vnd,106.700798,10.7732879,"Trung tâm mua sắm Saigon Centre, Nam Kỳ Khởi Nghĩa, Phường Bến Nghé, Quận 1, Thành phố Hồ Chí Minh, 00084, Việt Nam"
224,Bò Lế Rồ,+84 1900 636123,,4.0,Kiểu Việt,100.000 vnd - 400.000 vnd,106.6996025,10.7771384,"Chung cư 158 Pasteur, Pastier, Phường Bến Nghé, Quận 1, Thành phố Hồ Chí Minh, 71006, Việt Nam"
225,Bò Né Thanh Tuyền,Chưa xác thực,,5.0,Món kết hợp,400.000 vnd - 700.000 vnd,106.7026379,10.7840417,"Khách sạn Sofitel Plaza Saigon, 17, Đường Nguyễn Du, Phường Bến Nghé, Quận 1, Thành phố Hồ Chí Minh, 77000, Việt Nam"
226,BO NONG - The Ethnic Cabaret,+84 90 302 02 43,,4.5,"Kiểu Á, Kiểu Việt, Bữa tối, Đêm muộn, Chỗ ngồi, Đặt chỗ, Dịch vụ bàn",400.000 vnd - 700.000 vnd,106.7357768,10.8046137,"Napoli Pizza, Đường Ngô Quang Huy, Phường Thảo Điền, Thành phố Thủ Đức, Thành phố Hồ Chí Minh, 71108, Việt Nam"
227,Bò Nướng Muối,+84 879 374 686,Đang mở cửa: 11:00 SA - 10:00 CH,5.0,"Nhà hàng bít tết, Kiểu Tây nam, Quầy rượu vang, Bữa trưa, Bữa tối, Bữa nửa buổi, Đêm muộn, Đồ uống, Có thẻ quà tặng",400.000 vnd - 700.000 vnd,106.6950398,10.7709251,"New World Hotel, 76, Đường Lê Lai, Phường Bến Thành, Quận 1, Thành phố Hồ Chí Minh, 71009, Việt Nam"
228,Bò Tơ Nhân Phát,+84 88 835 03 25,Đang mở cửa: 11:00 SA - 11:00 CH,5.0,"Đồ nướng, Thịt nướng, Quán rượu, Kiểu Việt, Bản địa, Bữa trưa, Bữa tối",400.000 vnd - 700.000 vnd,106.6794695,10.762077,"Lam Sơn Football Field, Hẻm 315 Trần Bình Trọng, Phường 4, Quận 5, Thành phố Hồ Chí Minh, 72406, Việt Nam"
229,Bò Tơ Tây Ninh Năm Sánh,+84 8 6685 0460,,4.5,Kiểu Việt,100.000 vnd - 400.000 vnd,106.7012968,10.7578263,"63, Đường Tân Vĩnh, Phường 4, Quận 4, Thành phố Hồ Chí Minh, 72800, Việt Nam"
230,Boho Cafe,+84 90 950 39 50,Đang đóng cửa:  Xem tất cả giờ,5.0,"Kiểu Việt, Bữa sáng, Bữa trưa, Bữa nửa buổi",20.000 vnd - 99.000 vnd,106.7060039,10.781112,"Nhà Hàng Mandarine, 11A, Ngô Văn Năm, Phường Bến Nghé, Quận 1, Thành phố Hồ Chí Minh, 77000, Việt Nam"
231,Bollywood Indian Cuisine,+84 90 635 74 42,Đang mở cửa: 10:00 SA - 10:00 CH,4.5,"Kiểu Ấn Độ, Phù hợp với người ăn chay, Tùy chọn ăn chay, Bữa tối, Bữa trưa",400.000 vnd - 700.000 vnd,106.6940888,10.7670549,"Cà Phê Bazzan, Đường Ðề Thám, Phường Phạm Ngũ Lão, Quận 1, Thành phố Hồ Chí Minh, 71010, Việt Nam"
232,BỜM,+84 8 2399 9980,Đang mở cửa: 5:00 CH - 11:00 CH,4.5,"Kiểu Á, Món kết hợp, Kiểu Việt, Bữa tối, Đêm muộn, Đồ uống",700.000 vnd - 1.000.000 vnd,106.6981492,10.7773688,"Saigon Sakura, 100, Đường Nguyễn Du, Phường Bến Nghé, Quận 1, Thành phố Hồ Chí Minh, 71006, Việt Nam"
233,Bombay Bento Indian,799048474,Đang mở cửa: 10:30 SA - 10:30 CH,5.0,"Kiểu Ấn Độ, Bữa trưa, Bữa tối, Bữa nửa buổi, Đồ uống",100.000 vnd - 400.000 vnd,106.7019987,10.7734784,"Chung cư 42 Tôn Thất Thiệp, 42, Tôn Thất Thiệp, Phường Bến Nghé, Quận 1, Thành phố Hồ Chí Minh, 00084, Việt Nam"
234,Bombay Indian Restaurant,Chưa xác thực,,4.0,"Kiểu Ấn Độ, Kiểu Á, Phù hợp với người ăn chay, Tùy chọn ăn chay, Thịt kiểu Hồi giáo",100.000 vnd - 400.000 vnd,106.6741136,10.7599818,"Phường 9, Quận 5, Thành phố Hồ Chí Minh, 73009, Việt Nam"
235,Bon Bread,+84 93 757 99 09,,4.5,Kiểu Việt,100.000 vnd - 400.000 vnd,106.693294,10.766217,"Nest, Hẻm 100 Trần Hưng Đạo, Phường Phạm Ngũ Lão, Quận 1, Thành phố Hồ Chí Minh, 70200, Việt Nam"
236,Bon’s Vegan,0383 394 093,Đang đóng cửa:  Xem tất cả giờ,4.5,"Kiểu Việt, Tốt cho sức khỏe, Thức ăn đường phố, Bữa sáng, Bữa trưa",400.000 vnd - 700.000 vnd,106.7286089,10.830574,"Đường số 8, Phường Hiệp Bình Chánh, Thành phố Thủ Đức, Thành phố Hồ Chí Minh, 50000, Việt Nam"
237,Bong Sen Hotel Restaurant,+84 28 3829 1516,Đang mở cửa: 08:00 SA - 10:00 CH,4.0,"Kiểu Á, Kiểu Việt, Bữa sáng, Bữa trưa, Bữa tối, Chỗ ngồi, Phục vụ đồ uống có cồn, Đặt chỗ, Dịch vụ bàn",400.000 vnd - 700.000 vnd,106.6984424,10.7731872,"A&EM, 44, Phan Bội Châu, Phường Bến Thành, Quận 1, Thành phố Hồ Chí Minh, 71009, Việt Nam"
238,Bông Súng Vegetarian Food - Coffee,+84 8 3822 0377,Đang mở cửa: 07:30 SA - 10:00 CH,4.5,"Kiểu Á, Kiểu Việt, Phù hợp với người ăn chay, Tùy chọn ăn chay, Tùy chọn đồ ăn không có gluten",100.000 vnd - 400.000 vnd,106.695195,10.7896249,"Citilight Tower, Đường Phan Liêm, Phường Đa Kao, Quận 1, Thành phố Hồ Chí Minh, 72210, Việt Nam"
239,Bongensai Japanese Vegan Restaurant,+84 98 440 80 99,Đang mở cửa: 09:00 SA - 10:00 CH,5.0,"Kiểu Nhật, Sushi, Kiểu Việt, Tốt cho sức khỏe, Phong cách ẩm thực Fusion Nhật Bản, Bữa sáng, Bữa trưa, Bữa tối, Bữa nửa buổi, Đồ uống",100.000 vnd - 400.000 vnd,106.7057617,10.7819158,"Tous Les Jours, Đường Lê Thánh Tôn, Phường Bến Nghé, Quận 1, Thành phố Hồ Chí Minh, 77000, Việt Nam"
240,Boo Coffee,+84 97 875 56 65,,4.0,"Cà phê, Chỗ ngồi",400.000 vnd - 700.000 vnd,106.6918488,10.7805653,"Ngọc Sương Marina, 172C, Nguyễn Đình Chiểu, Phường Võ Thị Sáu, Quận 3, Thành phố Hồ Chí Minh, 70001, Việt Nam"
241,Bookmark Restaurant,+84 28 6256 9966,Đang mở cửa: 06:00 SA - 10:00 CH,4.5,"Kiểu Âu, Kiểu Á, Kiểu Việt, Bữa sáng, Bữa tối, Bữa trưa, Bữa nửa buổi",400.000 vnd - 700.000 vnd,106.7029113,10.7798555,"Shamballa vegetarian, restaurant & lounge - Saigon, 31, Đường Lý Tự Trọng, Phường Bến Nghé, Quận 1, Thành phố Hồ Chí Minh, 77000, Việt Nam"
242,Bookworm's Coffee,+84 90 889 60 85,Đang mở cửa: 07:00 SA - 11:30 CH,4.0,"Quầy bar, Kiểu Anh, Cà phê, Kiểu Việt, Phù hợp với người ăn chay, Tùy chọn ăn chay, Tùy chọn đồ ăn không có gluten, Bữa sáng, Bữa trưa, Bữa tối, Bữa nửa buổi, Đồ uống",400.000 vnd - 700.000 vnd,106.7044719,10.7726282,"Quán Bar Hoppy Juice, 52, Đường Ngô Ðức Kế, Phường Bến Nghé, Quận 1, Thành phố Hồ Chí Minh, 00084, Việt Nam"
243,Boom Dak - Nha Hang Am Thuc Ga Han Quoc,+84 8 6650 9292,Đang mở cửa: 11:00 SA - 10:00 CH,4.5,"Kiểu Á, Kiểu Hàn Quốc, Bữa trưa, Bữa tối",400.000 vnd - 700.000 vnd,106.6908327,10.7657068,"Bui Vien Hostel, Hẻm 205 Bùi Viện, Phường Phạm Ngũ Lão, Quận 1, Thành phố Hồ Chí Minh, 70200, Việt Nam"
244,Boomerang Bistro Saigon,+84 90 186 80 00,Đang mở cửa: 07:30 SA - 11:00 CH,3.5,"Kiểu Âu, Kiểu Úc, Bữa trưa, Bữa tối, Bữa sáng, Đêm muộn, Đồ uống",100.000 vnd - 400.000 vnd,106.7330699,10.8060719,"Le Bacoulos, 13, Tống Hữu Định, Phường Thảo Điền, Thành phố Thủ Đức, Thành phố Hồ Chí Minh, 71108, Việt Nam"
245,Bornga,+84 93 140 34 88,,4.0,"Kiểu Á, Kiểu Hàn Quốc",400.000 vnd - 700.000 vnd,106.6969772,10.7691071,"Quán Bar Winking Seal Bia, 50, Ðặng Thị Nhu, Phường Nguyễn Thái Bình, Quận 1, Thành phố Hồ Chí Minh, 71010, Việt Nam"
246,Bornga -Original Korean Taste-,+84 90 141 73 35,,4.0,"Kiểu Hàn Quốc, Đồ nướng, Kiểu Á, Bữa tối, Bữa trưa, Đặt chỗ, Chỗ ngồi, Dịch vụ bàn",400.000 vnd - 700.000 vnd,106.6909713,10.7672067,"Khách Sạn Ailen Garden, Hẻm 283 Phạm Ngũ Lão, Phường Phạm Ngũ Lão, Quận 1, Thành phố Hồ Chí Minh, 70200, Việt Nam"
247,Boudoir Lounge,+84 98 358 07 01,,4.0,"Quầy bar, Kiểu Pháp, Quán rượu, Kiểu Việt, Quầy rượu vang, Chỗ ngồi, Quầy bar đầy đủ, Đặt chỗ, Bãi đỗ xe có vé, Phục vụ đồ uống có cồn, Dịch vụ bàn",400.000 vnd - 700.000 vnd,106.7180763,10.7339491,"Đường Nguyễn Đổng Chi, Phường Tân Phú, Quận 7, Thành phố Hồ Chí Minh, 72915, Việt Nam"
248,Boulevard Grill Bar,+84 28 3636 0264,Đang mở cửa: 10:00 SA - 10:30 CH,5.0,"Kiểu Ý, Kiểu Mỹ, Kiểu Tây Ban Nha, Kiểu Việt, Bữa trưa, Bữa tối",400.000 vnd - 700.000 vnd,106.7055148,10.7818522,"10, Lê Thánh Tôn, Phường Bến Nghé, Quận 1, Thành phố Hồ Chí Minh, 71006, Việt Nam"
249,Bready Bánh Mì Tươi,+84 8 3822 2498,,4.5,Nhà hàng bít tết,400.000 vnd - 700.000 vnd,106.699329,10.7729344,"Cửa Hàng Thời Trang Ginkgo, Đường Lê Lợi, Phường Bến Thành, Quận 1, Thành phố Hồ Chí Minh, 71006, Việt Nam"
250,Breeze Sky Bar,+84 8 3829 5514,,4.0,"Quầy bar, Bữa sáng, Bữa tối, Bữa nửa buổi, Đêm muộn, Đồ uống, Ngồi ngoài trời, Chỗ ngồi, Phục vụ đồ uống có cồn, Đặt chỗ, Dịch vụ bàn",400.000 vnd - 700.000 vnd,106.68528,10.764514,"Khách Sạn Little Saigon, C51B1, hẻm 214, Phường Nguyễn Cư Trinh, Quận 1, Thành phố Hồ Chí Minh, 70000, Việt Nam"
251,Brewlliant Craft Beer Gastropub,+84 90 730 50 59,,5.0,"Kiểu Mỹ, Kiểu Á",400.000 vnd - 700.000 vnd,106.6648894,10.8101522,"Toà Nhà ACV, Hẻm 50 Trường Sơn, Phường 2, Quận Tân Bình, Thành phố Hồ Chí Minh, 70048, Việt Nam"
252,Brick & Barrel,Chưa xác thực,Đang mở cửa: 10:00 SA - 12:00 SA,4.5,"Bữa sáng, Bữa trưa, Bữa tối, Đêm muộn, Đồ uống, Giao hàng, Cửa hàng bán thức ăn mang về, Đặt chỗ, Chỗ ngồi, Có bãi đỗ xe, Phục vụ đồ uống có cồn, Quầy bar đầy đủ, Rượu và bia, Chấp nhận thẻ tín dụng, Nhạc sống, Cho phép chó, Quán bar xem ",400.000 vnd - 700.000 vnd,106.7371227,10.8045165,"Nhà Hàng Thai Street, 32, Đường Thảo Điền, Phường Thảo Điền, Thành phố Thủ Đức, Thành phố Hồ Chí Minh, 71108, Việt Nam"
253,Brix Wine Bar & Kitchen,+84 8 3825 6300,Đang mở cửa: 1:00 CH - 01:00 SA,4.5,"Kiểu Pháp, Kiểu Đức, Kiểu Thụy Sĩ, Kiểu Địa Trung Hải, Quầy rượu vang, Quầy bar, Kiểu Âu, Quán rượu, Phù hợp với người ăn chay",400.000 vnd - 700.000 vnd,106.697018,10.771701,"Queen Ann, Đường Lê Lai, Phường Bến Thành, Quận 1, Thành phố Hồ Chí Minh, 71009, Việt Nam"
254,Broma Not-A-Bar,+84 90 144 19 55,,4.0,"Quầy bar, Kiểu Âu, Quán rượu, Quầy rượu vang, Đồ uống, Chỗ ngồi, Phục vụ đồ uống có cồn, Đặt chỗ, Ngồi ngoài trời, Dịch vụ bàn",400.000 vnd - 700.000 vnd,106.7040803,10.7772014,"The Coffee Bean & Tea Leaf, 97, Hai Bà Trưng, Phường Bến Nghé, Quận 1, Thành phố Hồ Chí Minh, 71006, Việt Nam"
255,BROS BBQ,+84 28 3930 0999,Đang mở cửa: 11:00 SA - 11:00 CH,4.0,"Hải sản, Đồ nướng, Kiểu Hàn Quốc, Quán rượu, Nhà hàng bia, Thịt nướng, Bữa trưa, Bữa tối, Đêm muộn, Đồ uống",100.000 vnd - 400.000 vnd,106.6922925,10.7808402,"Cơ quan Thường trực phía Nam TP.HCM, 79, Nguyễn Đình Chiểu, Phường Võ Thị Sáu, Quận 3, Thành phố Hồ Chí Minh, 70001, Việt Nam"
256,Brotzeit,Chưa xác thực,,4.0,"Kiểu Đức, Kiểu Âu, Quầy bar, Quán rượu, Bữa trưa, Bữa tối, Chỗ ngồi, Phục vụ đồ uống có cồn, Đặt chỗ, Ngồi ngoài trời, Dịch vụ bàn",400.000 vnd - 700.000 vnd,106.6949131,10.7642857,"Điện thờ Phật mẫu Thái Hoà, Hẻm 71 Cô Bắc, Phường Cô Giang, Quận 1, Thành phố Hồ Chí Minh, 71010, Việt Nam"
257,Buffet NINETEEN,+84 28 3823 4999,Đang mở cửa: 06:00 SA - 10:00 SA5:45 CH - 10:00 CH,4.5,"Hải sản, Quốc tế, Kiểu Việt, Bữa tối, Bữa sáng, Bữa trưa",700.000 vnd - 1.000.000 vnd,106.715246,10.8043276,"Đường Võ Oanh, Phường 25, Quận Bình Thạnh, Thành phố Hồ Chí Minh, 71107, Việt Nam"
258,Bugis Singapore,+84 8 3823 5444,Đang mở cửa: 10:30 SA - 10:00 CH,3.5,"Kiểu Ý, Kiểu Trung Quốc, Kiểu Á, Kiểu Singapore, Bữa trưa, Bữa tối, Bữa nửa buổi, Chỗ ngồi, Lối vào ra cho xe lăn, Dịch vụ bàn",400.000 vnd - 700.000 vnd,106.7006049,10.7893314,"Bưu Điện Việt Nam, Nguyễn Đình Chiểu, Phường Đa Kao, Quận 1, Thành phố Hồ Chí Minh, 77000, Việt Nam"
259,Buk Buk - Quan Nhau Han Quoc,+84 28 3991 1279,Đang mở cửa: 10:00 SA - 10:00 CH,4.5,"Đồ nướng, Kiểu Á, Kiểu Hàn Quốc, Thịt nướng, Bữa trưa, Bữa tối",100.000 vnd - 400.000 vnd,106.696716,10.787569,"G-Coffee, 207B, Nguyễn Văn Thủ, Phường Đa Kao, Quận 1, Thành phố Hồ Chí Minh, 77000, Việt Nam"
260,Bun Bo Ganh,+84 8 6684 3263,,4.0,"Kiểu Á, Kiểu Việt, Súp, Bữa trưa, Bữa tối, Cửa hàng bán thức ăn mang về, Ngồi ngoài trời, Chỗ ngồi, Dịch vụ bàn, Phục vụ đồ uống có cồn",400.000 vnd - 700.000 vnd,106.6744452,10.7706428,"Trần Minh Quyền, Phường 11, Quận 10, Thành phố Hồ Chí Minh, 72406, Việt Nam"
261,Bún Bò Huế Đông Ba,+84 28 3823 9672,Đang mở cửa: 06:30 SA - 10:30 CH,4.0,"Kiểu Á, Kiểu Việt, Súp, Bữa trưa, Bữa sáng, Bữa tối",20.000 vnd - 99.000 vnd,106.7047569,10.7818728,"Tiệm Spa Miu Miu, Đường Lý Tự Trọng, Phường Bến Nghé, Quận 1, Thành phố Hồ Chí Minh, 77000, Việt Nam"
262,Bún Bò Huế Nam Giao,+84 28 3836 9446,Đang mở cửa: 06:00 SA - 11:00 CH,4.5,"Đồ ăn nhanh, Kiểu Á, Kiểu Việt, Bữa trưa, Bữa tối, Bữa nửa buổi, Bữa sáng, Dịch vụ bàn, Cửa hàng bán thức ăn mang về, Chỗ ngồi",400.000 vnd - 700.000 vnd,106.6963649,10.7715807,"Khách Sạn Cat, Trương Định, Phường Bến Thành, Quận 1, Thành phố Hồ Chí Minh, 71009, Việt Nam"
263,Bun Bo Hue Yen Do,+84 8 3931 2975,Đang mở cửa: 09:00 SA - 10:00 CH,4.5,"Kiểu Việt, Bữa sáng, Bữa trưa, Bữa tối",400.000 vnd - 700.000 vnd,106.6924759,10.7667463,"Cửa Hàng Mỹ Phẩm AAA Spa & Massage, 133, Đường Bùi Viện, Phường Phạm Ngũ Lão, Quận 1, Thành phố Hồ Chí Minh, 70200, Việt Nam"
264,Bún Bò Mô Tê,+84 8 3510 9544,,4.5,Kiểu Bữa tối,400.000 vnd - 700.000 vnd,106.6995645,10.7884855,"Nhà Hàng Làng Việt, Đường Đinh Tiên Hoàng, Phường Đa Kao, Quận 1, Thành phố Hồ Chí Minh, 77000, Việt Nam"
265,Bún Bò Nhà Ga,+84 89 950 68 89,Đang mở cửa: 12:00 SA - 11:59 CH,5.0,"Kiểu Việt, Kiểu Á, Bữa trưa, Bữa sáng, Bữa tối, Bữa nửa buổi, Đêm muộn, Đồ uống",100.000 vnd - 400.000 vnd,106.7012759,10.769185,"Hẻm 158 Nguyễn Công Trứ, Phường Nguyễn Thái Bình, Quận 1, Thành phố Hồ Chí Minh, 71010, Việt Nam"
266,Bún Chả 145,+84 91 933 67 73,Đang mở cửa: 10:30 SA - 9:00 CH,4.5,"Kiểu Việt, Tốt cho sức khỏe, Phù hợp với người ăn chay, Bữa trưa, Bữa tối",400.000 vnd - 700.000 vnd,106.7018806,10.773207,"Temple Club Hotel, 29-31, Tôn Thất Thiệp, Phường Bến Nghé, Quận 1, Thành phố Hồ Chí Minh, 00084, Việt Nam"
267,Bún Chả 1986,+84 91 667 69 90,Đang mở cửa: 07:00 SA - 10:00 CH,5.0,"Kiểu Việt, Đồ nướng, Cửa hàng thức ăn ngon, Thịt nướng, Thức ăn đường phố, Bữa sáng, Bữa trưa, Bữa tối",20.000 vnd - 99.000 vnd,106.68908,10.7814343,"Serenity Sky Villas, Đường Ðiện Biên Phủ, Phường Võ Thị Sáu, Quận 3, Thành phố Hồ Chí Minh, 70001, Việt Nam"
268,Bún Chả Hà Nội,Chưa xác thực,Đang mở cửa: 10:00 SA - 8:00 CH,5.0,"Kiểu Việt, Bữa trưa, Bữa tối",100.000 vnd - 400.000 vnd,106.7370765,10.8040673,"Kokois, Đường Thảo Điền, Phường Thảo Điền, Thành phố Thủ Đức, Thành phố Hồ Chí Minh, 71108, Việt Nam"
269,Bún Chả Hà Nội - Bún Chả Hồ Gươm,+84 28 6683 6659,Đang mở cửa: 07:00 SA - 9:00 CH,5.0,"Kiểu Việt, Bữa sáng, Bữa trưa, Bữa tối, Đồ uống",20.000 vnd - 99.000 vnd,106.7309796,10.8103172,"The British International School, AP2 Campus, 246, Đường Nguyễn Văn Hưởng, Phường Thảo Điền, Thành phố Thủ Đức, Thành phố Hồ Chí Minh, 71107, Việt Nam"
270,Bun Cha Ha Noi 26,+84 8 3827 5843,Đang mở cửa: 07:00 SA - 11:00 CH,4.0,"Kiểu Á, Kiểu Việt, Bữa trưa, Bữa tối, Cửa hàng bán thức ăn mang về, Chỗ ngồi, Dịch vụ bàn",400.000 vnd - 700.000 vnd,106.6988768,10.7777727,"Loft Café, Pastier, Phường Bến Nghé, Quận 1, Thành phố Hồ Chí Minh, 71006, Việt Nam"
271,Bún Chả Hà Nội Sen Vàng,0395 336 688,Đang mở cửa: 08:00 SA - 3:00 CH5:00 CH - 10:00 CH,4.5,"Kiểu Việt, Bữa sáng, Bữa trưa, Bữa tối",400.000 vnd - 700.000 vnd,106.7080605,10.7304935,"源 minamoto, Hưng Phước 3, Phường Tân Phong, Quận 7, Thành phố Hồ Chí Minh, 72915, Việt Nam"
272,Bún chả Hồ Gươm,Chưa xác thực,,4.5,"Kiểu Á, Kiểu Việt, Bữa trưa, Bữa nửa buổi, Bữa sáng, Bữa tối, Cửa hàng bán thức ăn mang về, Chỗ ngồi",400.000 vnd - 700.000 vnd,106.7047913,10.7734076,"Cửa Hàng Cà Phê The Workshop, Đường Nguyễn Huệ, Phường Bến Nghé, Quận 1, Thành phố Hồ Chí Minh, 71006, Việt Nam"
273,Bún Chả Thăng Long,+84 91 863 54 88,Đang mở cửa: 07:00 SA - 10:00 CH,4.5,"Kiểu Việt, Bữa sáng, Bữa trưa, Bữa tối",400.000 vnd - 700.000 vnd,106.6943118,10.7687264,"Khách Sạn Sao Nam, Hẻm 28 Bùi Viện, Phường Phạm Ngũ Lão, Quận 1, Thành phố Hồ Chí Minh, 71010, Việt Nam"
274,Bún Chả Tô,+84 90 913 08 26,,4.5,Kiểu Việt,20.000 vnd - 99.000 vnd,106.705369,10.7752885,"Hilton Saigon Hotel, Phan Văn Ðạt, Phường Bến Nghé, Quận 1, Thành phố Hồ Chí Minh, 00084, Việt Nam"
275,Bún Đậu A Vừng,+84 28 3925 1939,,4.5,Kiểu Việt,100.000 vnd - 400.000 vnd,106.7087404,10.7337268,"Nhà Hàng Confidant, Đường số 2, Phường Tân Phong, Quận 7, Thành phố Hồ Chí Minh, 72915, Việt Nam"
276,Bún Đậu Cô Khàn,+84 8 3837 7309,,4.0,"Kiểu Việt, Kiểu Á, Bữa trưa, Bữa tối, Cửa hàng bán thức ăn mang về, Dịch vụ bàn",400.000 vnd - 700.000 vnd,106.6842456,10.7584399,"159, Nguyễn Văn Cừ, Phường 2, Quận 5, Thành phố Hồ Chí Minh, 70200, Việt Nam"
277,Bun Dau Khu Kim Lien,+84 90 759 69 72,,5.0,Món kết hợp,400.000 vnd - 700.000 vnd,106.731812,10.8045728,"Soma Art Lounge, Đường Lê Văn Miễn, Phường Thảo Điền, Thành phố Thủ Đức, Thành phố Hồ Chí Minh, 71108, Việt Nam"
278,Bún Đậu Mắm Tôm,+84 96 858 75 47,,5.0,Kiểu Việt,100.000 vnd - 400.000 vnd,106.6695902,10.7512901,"Nhà Hàng Chay An Duyên, 10, Nguyễn Tri Phương, Phường 6, Quận 5, Thành phố Hồ Chí Minh, 73009, Việt Nam"
279,Bún Đậu Ngõ Nhỏ Phố Nhỏ,+84 90 687 01 02,,4.5,Kiểu Việt,100.000 vnd - 400.000 vnd,106.6990678,10.7743097,"T-Plus Coffee, Lê Thánh Tôn, Phường Bến Thành, Quận 1, Thành phố Hồ Chí Minh, 71006, Việt Nam"
280,Bún mọc Thanh Mai,38232885,,4.5,"Kiểu Việt, Kiểu Á, Bữa trưa, Bữa nửa buổi, Bữa sáng, Cửa hàng bán thức ăn mang về, Chỗ ngồi, Dịch vụ bàn",400.000 vnd - 700.000 vnd,106.7058308,10.7813164,"Quan Bui, 17/A, Ngô Văn Năm, Phường Bến Nghé, Quận 1, Thành phố Hồ Chí Minh, 77000, Việt Nam"
281,Bún Quậy Saigon,+84 90 731 18 88,Đang mở cửa: 10:00 SA - 10:00 CH,4.5,"Kiểu Việt, Hải sản, Kiểu Á, Tốt cho sức khỏe, Súp, Phù hợp với người ăn chay",20.000 vnd - 99.000 vnd,106.7274721,10.8200198,"Hẻm 256 Bình Quới, Phường 28, Quận Bình Thạnh, Thành phố Hồ Chí Minh, 50000, Việt Nam"
282,Bún Riêu Cua Ốc,Chưa xác thực,,5.0,Món kết hợp,400.000 vnd - 700.000 vnd,106.7123798,10.7900468,"The Rabbit Hole Irish Sports Bar, Đường Phạm Viết Chánh, Phường 19, Quận Bình Thạnh, Thành phố Hồ Chí Minh, 77000, Việt Nam"
283,Bún Riêu Gánh,+84 90 855 79 75,Đang đóng cửa:  Xem tất cả giờ,4.5,"Kiểu Việt, Bữa trưa, Bữa sáng, Bữa tối",400.000 vnd - 700.000 vnd,106.6904472,10.7722185,"Khách Sạn Little Brick, 18, Bùi Thị Xuân, Phường Bến Thành, Quận 1, Thành phố Hồ Chí Minh, 70200, Việt Nam"
284,Bún Riêu Nhà -  Chi nhánh Nguyễn Thái Học,+84 90 866 42 70,Đang mở cửa: 07:00 SA - 10:00 CH,4.5,"Kiểu Việt, Kiểu Á, Bữa trưa, Bữa tối, Bữa sáng, Bữa nửa buổi",100.000 vnd - 400.000 vnd,106.6891205,10.7781214,"Fang Pub - Hồ Xuân Hương, Hồ Xuân Hương, Phường Võ Thị Sáu, Quận 3, Thành phố Hồ Chí Minh, 70001, Việt Nam"
285,Bun Saigon,+84 8 6276 2609,,3.5,"Kiểu Á, Kiểu Việt, Bữa trưa, Chỗ ngồi, Dịch vụ bàn",400.000 vnd - 700.000 vnd,106.6828025,10.7761767,"Đường Ðiện Biên Phủ, Phường 4, Quận 3, Thành phố Hồ Chí Minh, 70001, Việt Nam"
286,Bún thịt nướng,Chưa xác thực,,5.0,Kiểu Việt,100.000 vnd - 400.000 vnd,106.6518351,10.8382112,"Hẻm 888 Quang Trung, Phường 8, Quận Gò Vấp, Thành phố Hồ Chí Minh, 71509, Việt Nam"
287,Bún thịt nướng Anh Ba,+84 28 3844 8446,Đang mở cửa: 06:30 SA - 10:00 CH,4.0,"Kiểu Việt, Bữa sáng, Bữa trưa, Bữa tối, Bữa nửa buổi, Đồ uống",20.000 vnd - 99.000 vnd,106.7067284,10.7825878,"Trạm Xe Bus Khoa Sư Phạm Đại Học Sài Gòn, Nguyễn Hữu Cảnh, Phường Bến Nghé, Quận 1, Thành phố Hồ Chí Minh, 77000, Việt Nam"
288,Bún Thịt Nướng Chị Tuyền,+84 90 853 80 79,Đang mở cửa: 06:00 SA - 8:00 CH,4.5,"Kiểu Việt, Kiểu Á, Bữa trưa, Bữa tối, Bữa sáng, Cửa hàng bán thức ăn mang về, Dịch vụ bàn, Chỗ ngồi",400.000 vnd - 700.000 vnd,106.6937823,10.7687075,"asian kitchen hotel, Hẻm 185 Phạm Ngũ Lão, Phường Phạm Ngũ Lão, Quận 1, Thành phố Hồ Chí Minh, 70200, Việt Nam"
289,Bún Thịt Nướng Kiều Bảo,+84 93 960 49 37,,5.0,Món kết hợp,400.000 vnd - 700.000 vnd,106.6746852,10.7657686,"Khách Sạn Huy Lộc 1, Lê Hồng Phong, Phường 2, Quận 10, Thành phố Hồ Chí Minh, 72406, Việt Nam"
290,BÚP Cafe,+84 90 296 93 86,,5.0,Món kết hợp,400.000 vnd - 700.000 vnd,106.6906002,10.7677701,"Du Lịch Long Phương, Phạm Ngũ Lão, Phường Phạm Ngũ Lão, Quận 1, Thành phố Hồ Chí Minh, 70200, Việt Nam"
291,Búp Sky Lounge & Restaurant,+84 28 3821 6915,Đang mở cửa: 06:30 SA - 10:00 CH,5.0,"Nhà hàng bán bia, Cà phê, Hải sản, Quán rượu, Quầy rượu vang, Quán bar phục vụ đồ ăn, Bữa sáng, Bữa trưa, Bữa tối, Bữa nửa buổi, Đồ uống",400.000 vnd - 700.000 vnd,106.6946219,10.7653307,"COM CHAY CHAN NHU 2, Đường Ðề Thám, Phường Cô Giang, Quận 1, Thành phố Hồ Chí Minh, 71010, Việt Nam"
292,Burger Joint Saigon,+84 89 883 10 06,Đang mở cửa: 11:00 SA - 10:00 CH,4.5,"Kiểu Mỹ, Bữa trưa, Bữa tối, Đồ uống",100.000 vnd - 400.000 vnd,106.7032972,10.7607194,"Phường 8, Quận 4, Thành phố Hồ Chí Minh, 72800, Việt Nam"
293,Burger King,+(84)38388891,,3.5,Kiểu Mỹ,100.000 vnd - 400.000 vnd,106.7188731,10.7290836,"Crescent Mall, 101, Đường Tôn Dật Tiên, Phường Tân Phú, Quận 7, Thành phố Hồ Chí Minh, 72915, Việt Nam"
294,Burger King Trường Chinh,+84 8 3948 3491,Đang mở cửa: 08:30 SA - 10:00 CH,4.5,"Kiểu Mỹ, Bữa nửa buổi, Bữa sáng, Bữa trưa, Bữa tối",100.000 vnd - 400.000 vnd,106.7032856,10.7298577,"SC-VivoCity, Vivo city, Saigon South Place, Phường Tân Phong, Quận 7, Thành phố Hồ Chí Minh, 72915, Việt Nam"
295,Busan Korean Food - Mon Han Quoc,+84 91 519 92 88,Đang mở cửa: 10:00 SA - 10:30 CH,4.0,"Bữa trưa, Bữa tối",400.000 vnd - 700.000 vnd,106.6885727,10.7677914,"bún đậu cầu gõ, Nguyễn Trãi, Phường Phạm Ngũ Lão, Quận 1, Thành phố Hồ Chí Minh, 70200, Việt Nam"
296,Butasama,+84 28 3931 1696,,4.5,"Kiểu Nhật, Nhà hàng bít tết, Đồ nướng, Quán rượu, Thức ăn đường phố",100.000 vnd - 400.000 vnd,106.6949661,10.7719203,"Hoang Ngoc 2, 29, Đường Lê Anh Xuân, Phường Bến Thành, Quận 1, Thành phố Hồ Chí Minh, 71009, Việt Nam"
297,Buzza Pizza,+84 28 2253 1005,,4.5,Món kết hợp,400.000 vnd - 700.000 vnd,106.7321829,10.8047376,"Soma Art Lounge, Đường Lê Văn Miễn, Phường Thảo Điền, Thành phố Thủ Đức, Thành phố Hồ Chí Minh, 71108, Việt Nam"
298,Buzza Pizza - Go Vap,+84 8 3588 0788,Đang mở cửa: 10:00 SA - 10:00 CH,4.0,"Kiểu Ý, Bữa trưa, Bữa tối",400.000 vnd - 700.000 vnd,106.6845281,10.790506,"Nhà Hàng Việt Chay, Hẻm 290 Nam Kỳ Khởi Nghĩa, Phường Võ Thị Sáu, Quận 3, Thành phố Hồ Chí Minh, 70150, Việt Nam"
299,C.TAO - Chinese Restaurant,+84 96 595 72 99,Đang mở cửa: 10:00 SA - 2:00 CH5:00 CH - 10:00 CH,4.0,"Kiểu Trung Quốc, Kiểu Á, Tốt cho sức khỏe, Phù hợp với người ăn chay",100.000 vnd - 400.000 vnd,106.6435334,10.792257,"Bàu Cát, Phường 14, Quận Tân Bình, Thành phố Hồ Chí Minh, 72012, Việt Nam"
300,Cà Phê Chất,+84 28 6685 3391,Đang mở cửa: 07:00 SA - 10:30 CH,4.5,"Cà phê, Kiểu Á, Kiểu Việt, Phù hợp với người ăn chay",100.000 vnd - 400.000 vnd,106.7004962,10.7678177,"Sup Cua Hanh, Nguyễn Công Trứ, Phường Nguyễn Thái Bình, Quận 1, Thành phố Hồ Chí Minh, 71010, Việt Nam"
301,Cà Phê Cô Ba Đồng Khởi Rooftop,+84 28 3823 3658,Đang mở cửa: 09:00 SA - 11:00 CH,5.0,"Cà phê, Kiểu Việt, Bữa sáng, Bữa trưa, Bữa tối, Đồ uống",100.000 vnd - 400.000 vnd,106.705278,10.7809853,"Khách sạn Roseland Centa, Hẻm 15A Đường Lê Thánh Tôn, Phường Bến Nghé, Quận 1, Thành phố Hồ Chí Minh, 77000, Việt Nam"
302,Cà Phê Đỗ Phủ - Cơm Tấm Đại Hàn,+84 91 311 02 94,,5.0,"Cà phê, Kiểu Việt",20.000 vnd - 99.000 vnd,106.7025256,10.8196439,"Hẻm 355 Nơ Trang Long, Phường 13, Quận Bình Thạnh, Thành phố Hồ Chí Minh, 72309, Việt Nam"
303,Cà Phê Rita,Chưa xác thực,,3.5,Món kết hợp,400.000 vnd - 700.000 vnd,106.6913776,10.7722541,"Khách Sạn Rạng Đông, Cách Mạng Tháng Tám, Phường Bến Thành, Quận 1, Thành phố Hồ Chí Minh, 70200, Việt Nam"
304,Ca Phe Suoi Da,Chưa xác thực,,4.0,"Cà phê, Chỗ ngồi, Dịch vụ bàn",400.000 vnd - 700.000 vnd,106.7053248,10.7745727,"Shin Coffee, Hồ Huấn Nghiệp, Phường Bến Nghé, Quận 1, Thành phố Hồ Chí Minh, 00084, Việt Nam"
305,Cà phê Viên,+84 8 2228 3388,Đang mở cửa: 06:00 SA - 11:00 CH,5.0,"Đồ ăn nhanh, Kiểu Bữa tối, Thức ăn đường phố, Phù hợp với người ăn chay, Bữa sáng, Bữa trưa, Bữa tối",400.000 vnd - 700.000 vnd,106.704043,10.774194,"Vo Roof Garden, Đường Nguyễn Huệ, Phường Bến Nghé, Quận 1, Thành phố Hồ Chí Minh, 71006, Việt Nam"
306,Caay Delicious,+84 868 818 284,Đang mở cửa: 11:00 SA - 10:00 CH,5.0,"Kiểu Á, Kiểu Thái, Kiểu Việt, Bữa trưa, Bữa tối, Bữa nửa buổi, Đồ uống",100.000 vnd - 400.000 vnd,106.7025033,10.7768953,"Nhà Hàng Le Bourgeois, Đường Ðồng Khởi, Phường Bến Nghé, Quận 1, Thành phố Hồ Chí Minh, 71006, Việt Nam"
307,Cafe 343,+84 8 3920 0988,Đang mở cửa: 07:00 SA - 11:00 CH,4.5,"Kiểu Mỹ, Cà phê, Kiểu Á, Kiểu Việt, Bữa sáng, Bữa trưa, Bữa tối",400.000 vnd - 700.000 vnd,106.6972224,10.7695666,"365 Chay, 26, Ðặng Thị Nhu, Phường Nguyễn Thái Bình, Quận 1, Thành phố Hồ Chí Minh, 71010, Việt Nam"
308,Cafe Anh,+84 28 3521 0004,Đang mở cửa: 08:00 SA - 11:00 CH,4.5,"Kiểu Á, Kiểu Việt, Quốc tế, Bữa sáng, Bữa trưa, Bữa tối, Đêm muộn, Đồ uống, Ngồi ngoài trời, Chỗ ngồi, Phục vụ đồ uống có cồn",400.000 vnd - 700.000 vnd,106.6800846,10.7719323,"Trạm Xe Bus Rạp Đại Đồng, 75, Cao Thắng, Phường 3, Quận 3, Thành phố Hồ Chí Minh, 72406, Việt Nam"
309,Café Cardinal,+84 8 3823 6688,Đang mở cửa: 06:30 SA - 10:30 SA11:30 SA - 5:00 CH6:00 CH - 10:00 CH,4.5,"Kiểu Pháp, Kiểu Âu, Quốc tế, Phù hợp với người ăn chay, Tùy chọn đồ ăn không có gluten, Tùy chọn ăn chay",700.000 vnd - 1.000.000 vnd,106.7098388,10.7909014,"Hẻm 25 Nguyễn Công Trứ, Phường 19, Quận Bình Thạnh, Thành phố Hồ Chí Minh, 77000, Việt Nam"
310,Cafe Central An Dong,+84 28 3833 6688,Đang mở cửa: 06:00 SA - 10:00 CH,4.0,"Kiểu Trung Quốc, Quốc tế, Kiểu Việt, Kiểu Á, Bữa tối, Bữa sáng, Bữa trưa, Đặt chỗ, Bữa ăn tự chọn, Chỗ ngồi, Có bãi đỗ xe, Lối vào ra cho xe lăn, Phục vụ đồ uống có cồn, Chấp nhận thẻ Mastercard, Chấp nhận thẻ Visa, Wifi miễn phí, Chấp nhận ",400.000 vnd - 700.000 vnd,106.7393475,10.8017781,"Đường Song Hành Xa Lộ Hà Nội, Phường Thảo Điền, Thành phố Thủ Đức, Thành phố Hồ Chí Minh, 71108, Việt Nam"
311,Cafe Central Nguyen Hue,+84 28 3822 6800,Đang mở cửa: 07:00 SA - 10:00 CH,3.5,"Cà phê, Quốc tế, Kiểu Việt, Phù hợp với người ăn chay, Tùy chọn ăn chay, Bữa trưa, Bữa tối, Bữa nửa buổi, Đồ uống",400.000 vnd - 700.000 vnd,106.7106917,10.7931017,"59, Đường Ngô Tất Tố, Phường 21, Quận Bình Thạnh, Thành phố Hồ Chí Minh, 77000, Việt Nam"
312,Cafe Central Villa Pasteur,+84 28 3829 2888,Đang mở cửa: 07:00 SA - 10:00 CH,4.5,"Cà phê, Kiểu Á, Kiểu Việt, Kiểu Ý, Món kết hợp, Bữa trưa, Bữa tối, Bữa sáng, Bữa nửa buổi, Đồ uống",100.000 vnd - 400.000 vnd,106.6920948,10.7706638,"Tòa nhà Zen Plaza, 54 - 56, Đường Nguyễn Trãi, Phường Bến Thành, Quận 1, Thành phố Hồ Chí Minh, 70200, Việt Nam"
313,Cafe Chelsea,+84 28 3822 6539,,5.0,Cà phê,20.000 vnd - 99.000 vnd,106.6774781,10.7545256,"Cửa Hàng Xăng Dầu Petrolimex, Đường Trần Hưng Ðạo, Phường 2, Quận 5, Thành phố Hồ Chí Minh, 73009, Việt Nam"
314,Cafe de l’Opera,+84 28 3823 4999,Đang mở cửa: 06:00 SA - 10:00 CH,4.0,"Bữa sáng, Bữa trưa, Bữa tối, Đồ uống, Chỗ ngồi, Lối vào ra cho xe lăn, Phục vụ đồ uống có cồn, Chấp nhận thẻ tín dụng, Đặt chỗ, Dịch vụ bàn",400.000 vnd - 700.000 vnd,106.7360187,10.8038238,"Butcher, 29, Nguyễn Bá Lân, Phường Thảo Điền, Thành phố Thủ Đức, Thành phố Hồ Chí Minh, 71108, Việt Nam"
315,Cafe De La Poste,+84 28 3823 1634,Đang mở cửa: 07:00 SA - 11:00 CH,3.0,"Kiểu Âu, Kiểu Việt, Cà phê, Bữa sáng, Đồ uống, Bữa trưa, Bữa nửa buổi",100.000 vnd - 400.000 vnd,106.6895438,10.7754357,"Nhà Hàng Prem Bistro & Cafe, 204, Nguyễn Đình Chiểu, Phường Võ Thị Sáu, Quận 3, Thành phố Hồ Chí Minh, 70001, Việt Nam"
316,Cafe Evita,+848-5123 888,Đang mở cửa: 07:30 SA - 10:30 CH,4.0,"Pizza, Bữa tối, Bữa sáng, Bữa trưa",100.000 vnd - 400.000 vnd,106.6903642,10.7857534,"Nhà Hàng Thế Giới Hải Sản, 244, Đường Pasteur, Phường Võ Thị Sáu, Quận 3, Thành phố Hồ Chí Minh, 70001, Việt Nam"
317,Cafe Hi-End,+84 8 3911 7770,,4.5,Món kết hợp,400.000 vnd - 700.000 vnd,106.6966695,10.7718326,"Khách Sạn Gia Huy, 26, Nguyễn An Ninh, Phường Bến Thành, Quận 1, Thành phố Hồ Chí Minh, 71009, Việt Nam"
318,Café Marcel,+84 90 987 80 96,Đang đóng cửa:  Xem tất cả giờ,4.5,"Cà phê, Cửa hàng thức ăn ngon, Kiểu Âu, Phù hợp với người ăn chay, Tùy chọn ăn chay, Tùy chọn đồ ăn không có gluten",100.000 vnd - 400.000 vnd,106.6974618,10.7732368,"Cửa Hàng Trang Sức Bến Thành, Lê Thánh Tôn, Phường Bến Thành, Quận 1, Thành phố Hồ Chí Minh, 71009, Việt Nam"
319,Cafe Paul 1932,+84 28 3620 3771,,5.0,Cà phê,100.000 vnd - 400.000 vnd,106.7003761,10.7684514,"The Sinh Tourist 2, Phó Ðức Chính, Phường Nguyễn Thái Bình, Quận 1, Thành phố Hồ Chí Minh, 71010, Việt Nam"
320,Cafe Runam,+84 8 3822 1037,,4.5,"Cà phê, Kiểu Bữa tối, Kiểu Việt, Bữa sáng, Bữa trưa, Bữa tối, Bữa nửa buổi",100.000 vnd - 400.000 vnd,106.7508858,10.8100904,"21, Số 10, Phường An Phú, Thành phố Thủ Đức, Thành phố Hồ Chí Minh, 71108, Việt Nam"
321,Café Saigon,+84 28 3844 9222,Đang mở cửa: 10:00 SA - 10:00 CH,4.5,"Quốc tế, Kiểu Việt, Bữa trưa, Bữa tối",400.000 vnd - 700.000 vnd,106.691654,10.7847038,"Trường THPT Dân Lập Á Châu, Đường Ðiện Biên Phủ, Phường Võ Thị Sáu, Quận 3, Thành phố Hồ Chí Minh, 70001, Việt Nam"
322,Cafe Soi Da,+84 8 3930 5665,,4.0,"Cà phê, Kiểu Á, Kiểu Việt, Bữa sáng, Bữa trưa, Bữa nửa buổi, Chỗ ngồi, Đặt chỗ, Dịch vụ bàn",400.000 vnd - 700.000 vnd,106.7053817,10.7729715,"Hem12, Đường Nguyễn Huệ, Phường Bến Nghé, Quận 1, Thành phố Hồ Chí Minh, 71006, Việt Nam"
323,Cafe Terrace,+84 8 3821 2369,Đang mở cửa: 07:00 SA - 10:00 CH,3.5,"Kiểu Á, Kiểu Việt, Cà phê, Bữa trưa, Đồ uống, Ngồi ngoài trời, Chỗ ngồi, Phục vụ đồ uống có cồn, Wifi miễn phí, Dịch vụ bàn",400.000 vnd - 700.000 vnd,106.6882538,10.787532,"Hẻm 72 Đường Trần Quốc Toản, Phường Võ Thị Sáu, Quận 3, Thành phố Hồ Chí Minh, 72210, Việt Nam"
324,Cafe Zoom,+84 90 836 79 97,Đang mở cửa: 07:00 SA - 02:00 SA,4.0,"Quầy bar, Cà phê, Bữa trưa, Bữa sáng, Bữa tối, Đêm muộn",100.000 vnd - 400.000 vnd,106.6705322,10.758893,"Trường Dự bị Đại học TP.HCM, 91, Đường Nguyễn Chí Thanh, Phường 9, Quận 5, Thành phố Hồ Chí Minh, 73009, Việt Nam"
325,Cài Gí Đo Cafe Vegan Food Restraurant,+84 93 793 00 30,,4.5,"Kiểu Á, Kiểu Việt, Phù hợp với người ăn chay, Tùy chọn ăn chay",20.000 vnd - 99.000 vnd,106.703974,10.763852,"116, Đường Hoàng Diệu, Phường 13, Quận 4, Thành phố Hồ Chí Minh, 72806, Việt Nam"
326,Calibre Lounge,+84 28 3829 1516,,4.0,Kiểu Việt,100.000 vnd - 400.000 vnd,106.6891333,10.7766948,"Lẩu Cá Kèo Bà Huyện 18, Đường Nguyễn Thị Diệu, Phường Võ Thị Sáu, Quận 3, Thành phố Hồ Chí Minh, 70001, Việt Nam"
327,Calmo - The Tonic Bar Tan Cang,+84 90 274 95 22,Đang mở cửa: 2:00 CH - 01:30 SA,5.0,"Quầy bar, Quốc tế, Kiểu Việt, Bữa trưa, Đêm muộn, Đồ uống",400.000 vnd - 700.000 vnd,106.6967004,10.790111,"Đường Phan Ngữ, Phường Đa Kao, Quận 1, Thành phố Hồ Chí Minh, 72210, Việt Nam"
328,Canh Quat Seafood Restaurant,+84 93 806 62 29,Đang mở cửa: 10:00 SA - 11:00 CH,4.5,"Hải sản, Bữa trưa, Bữa tối",100.000 vnd - 400.000 vnd,106.6896223,10.7661815,"Fritz, Đường Cống Quỳnh, Phường Phạm Ngũ Lão, Quận 1, Thành phố Hồ Chí Minh, 70200, Việt Nam"
329,Cantina cafe,+84 8 3827 5555,Đang mở cửa: 08:00 SA - 10:30 CH,4.0,"Cà phê, Kiểu Việt, Bữa sáng, Bữa trưa, Bữa tối",400.000 vnd - 700.000 vnd,106.7188128,10.6920958,"Nguyễn Hữu Thọ, Xã Phước Kiển, Huyện Nhà Bè, Thành phố Hồ Chí Minh, 72915, Việt Nam"
330,Capone's Chicago Deep Dish & Street Food,Chưa xác thực,Đang mở cửa: 4:00 CH - 11:00 CH,4.0,"Pizza, Kiểu Ý, Bữa tối, Đêm muộn, Đồ uống, Giao hàng, Cửa hàng bán thức ăn mang về, Đặt chỗ, Ngồi ngoài trời, Chỗ ngồi, Có bãi đỗ xe, Bãi đỗ xe đường phố, Bãi đỗ xe tập trung miễn phí, Phục vụ đồ uống có cồn, Quầy bar đầy đủ, Rượu và bi",400.000 vnd - 700.000 vnd,106.6900008,10.7711021,"FamilyMart, Đường Lê Thị Riêng, Phường Bến Thành, Quận 1, Thành phố Hồ Chí Minh, 70200, Việt Nam"
331,Cappuccino,Chưa xác thực,,3.5,"Kiểu Ý, Phù hợp với người ăn chay, Bữa trưa, Bữa tối, Bữa sáng, Đêm muộn",400.000 vnd - 700.000 vnd,106.7002058,10.781459,"Khách Sạn InterContinental, 39, Đường Nguyễn Du, Phường Bến Nghé, Quận 1, Thành phố Hồ Chí Minh, 77000, Việt Nam"
332,Captain Phook,+84 90 119 88 96,,5.0,"Kiểu Mexico, Kiểu Á, Đương đại, Món kết hợp, Thức ăn đường phố",400.000 vnd - 700.000 vnd,106.7037924,10.7772492,"Cây đàn Việt Nam, Công Trường Lam Sơn, Phường Bến Nghé, Quận 1, Thành phố Hồ Chí Minh, 71006, Việt Nam"
333,Cà-Rem,+84 93 324 77 99,Đang mở cửa: 10:30 SA - 10:30 CH,4.0,"Bữa trưa, Bữa tối",400.000 vnd - 700.000 vnd,106.6975746,10.771839,"Phở 24, Phan Chu Trinh, Phường Bến Thành, Quận 1, Thành phố Hồ Chí Minh, 71009, Việt Nam"
334,Carl's Junior,+84 8 6291 3630,,3.5,"Kiểu Mỹ, Đồ ăn nhanh, Bữa sáng, Bữa trưa, Bữa tối, Cửa hàng bán thức ăn mang về, Chỗ ngồi",400.000 vnd - 700.000 vnd,106.7058389,10.714065,"Nguyễn Hữu Thọ, Xã Phước Kiển, Huyện Nhà Bè, Thành phố Hồ Chí Minh, 72915, Việt Nam"
